yelp_id,gmaps_id,gmaps_name,gmaps_address,gmaps_city,gmaps_zipcode,gmaps_latitude,gmaps_longitude,yelp_rating,yelp_rating_count,gmaps_rating,gmaps_rating_count,composite_score,yelp_types,gmaps_types,has at least one type (yelp/google)
bP6goJODwRnM3AVy45Kn9w,ChIJs_XQKGwE9YgRk6aS134lkwA,Papi's Cuban & Caribbean Grill,"216 Ponce De Leon Ave NE, Atlanta, GA 30308",Atlanta,30308,33.7727465,-84.3803803,4,1001,4.5,3284,0.8063317773,"Caribbean, Cuban, Restaurants","restaurant, food",1
opdd6sSWjwiy-doXnlpMeA,ChIJEQGwSHgE9YgRMW1WQIpsLZQ,Tin Lizzy's Cantina,"26 Andrew Young International Blvd NE, Atlanta, GA 30303",Atlanta,30303,33.7597795,-84.3866868,3.5,10,4.7,4827,0.7104738756,"Restaurants, Nightlife, Mexican, Bars, Sports Bars, Tex-Mex","bar, restaurant, food",1
LOiS95cRQbPrbRZ2-fMXbg,ChIJzaEokawG9YgRkhXYNqGr8UE,Shane's Rib Shack,"1221 Caroline St NE, Atlanta, GA 30307",Atlanta,30307,33.7582716,-84.3484586,3,100,4.2,842,0.6266392401,"Caterers, Barbeque, Restaurants, Event Planning & Services, Southern","restaurant, food",1
vE6ZtSOEpFWbpl8KmEqv7g,ChIJIdpXQv0F9YgRPtTY5ZzDQWE,Truva Turkish Kitchen,"60 Andrew Young International Blvd NE, Atlanta, GA 30303",Atlanta,30303,33.7599813,-84.3857986,4,446,4.4,658,0.7671088687,"Turkish, Restaurants, Mediterranean, Vegetarian","restaurant, food",1
KTRhicnD-1DHJJDjTy2Y_A,ChIJmWvyivIE9YgRVnliDUHj0pQ,Caffe Antico,"1077 Hemphill Ave NW, Atlanta, GA 30318, United States",Atlanta,30318,33.784286,-84.4055473,3.5,76,4.1,119,0.6421428863,"Cafes, Food, Coffee & Tea, Gelato, Restaurants",food,1
dTqLaBbjDRIYKqEQ9L3J8w,ChIJl7xNxS0H9YgRkQ2uW1N4O8I,Mojo Pizza N' Pub,"657 East Lake Dr, Decatur, GA 30030",Decatur,30030,33.7593752,-84.3035125,3,143,4.2,374,0.6236987676,"Bars, Pubs, Italian, Restaurants, Pizza, Nightlife","bar, restaurant, food",1
v7jxMevlILvPkDWubX_Xug,ChIJEaOP83cE9YgRsIHK7RdWDr0,Cuts Steakhouse,"60 Andrew Young International Blvd NE, Atlanta, GA 30303",Atlanta,30303,33.759901,-84.3857852,3.5,502,4.3,2968,0.7246070763,"Restaurants, American (Traditional), Steakhouses","restaurant, food",1
MlXsuBBd9UwgBkQzrGDJqA,ChIJZ8obVM4J9YgR_JlLF3EF1EM,LanZhou Ramen,"5231 Buford Hwy NE, Doraville, GA 30340",Doraville,30340,33.8948429,-84.2819667,4,471,4.4,1284,0.7749036063,"Chinese, Restaurants, Japanese, Ramen","restaurant, food",1
9aetNxZjTbzWonbG6KZBZA,ChIJdRQ6CaWp9YgRjT4c933ZI5o,Applebee's Grill + Bar,"4705 Memorial Dr, Decatur, GA 30032",Decatur,30032,33.7830219,-84.2359951,2,69,3.7,3369,0.4853878457,"Nightlife, Sports Bars, Bars, Burgers, American (New), American (Traditional), Restaurants, Steakhouses","restaurant, bar, food",1
2my2c6ppqTjM0YYsr7Ugcw,ChIJ_4mRv7sI9YgRSFYWBZEn-kw,Terra Terroir,"3974 Peachtree Rd, Atlanta, GA 30319",Atlanta,30319,33.8593822,-84.3413386,4,219,4.4,372,0.7502059075,"Restaurants, American (New), Wine Tasting Room, Food Delivery Services, Cocktail Bars, Bars, Asian Fusion, Arts & Entertainment, Food, Wine Bars, Nightlife, Wineries, Sports Bars, American (Traditional)","restaurant, food",1
KXLAO_XauFtDMoUb-9ziZA,ChIJVTxdxbcG9YgRL-F9n6tZ9cQ,Fellini's Pizza,"1634 McLendon Ave NE, Atlanta, GA 30307",Atlanta,30307,33.7650216,-84.3339731,4,151,4.5,1218,0.7668085261,"Restaurants, Pizza","restaurant, food",1
2E9rM9VBFEPo7_YHvLyoVw,ChIJezgxFGCn9YgRyShi0kkX0Qc,Chick-fil-A,"5700 Buford Hwy NE, Doraville, GA 30340",Doraville,30340,33.9076632,-84.2690846,2.5,44,4.2,1966,0.57294097,"Restaurants, Caterers, Event Planning & Services, Fast Food","restaurant, food",1
5NuMKr1rIJYOnsgMNvu2dg,ChIJOwmMtJ4O9YgRcWWOjM7fFz8,Persepolis Persian Cuisine,"6435-B Roswell Rd, Sandy Springs, GA 30328",Sandy Springs,30328,33.930749,-84.3790961,4,246,4.3,834,0.7503878111,"Restaurants, Food, Persian/Iranian, Specialty Food, Ethnic Food, Middle Eastern","restaurant, food",1
3R0TFde14zZt4LgXVYmhiQ,ChIJz_r8aHgE9YgRWMtuVuysSFQ,Hooters,"209 Peachtree St NE, Atlanta, GA 30303",Atlanta,30303,33.7595191,-84.3874556,2,402,3.6,4026,0.5043478287,"Nightlife, Restaurants, American (Traditional), Burgers, Chicken Wings, Bars, Sports Bars","meal_delivery, meal_takeaway, bar, restaurant, food",1
CU84ekjzHClLpsE1SdQfYQ,ChIJZfZYLYsD9YgRa0isvNk8b3g,Foxx Original Jamaican Restaurant,"378 Edgewood Ave SE, Atlanta, GA 30312",Atlanta,30312,33.7544931,-84.3752964,3.5,95,4,511,0.6506619096,"Food, Caribbean, Specialty Food, Restaurants","restaurant, food",1
MurRZhxMFipelvK2zzHRaw,ChIJr3eGJWgF9YgRQ_RhEySlh3s,The Iberian Pig,"3150 Roswell Rd NW Suite A3, Atlanta, GA 30305",Atlanta,30305,33.8410438,-84.3793324,4.5,184,4.8,1378,0.8511348716,"Nightlife, Tapas Bars, Restaurants, Bars, Beer Bar, Spanish, Burgers","restaurant, food",1
5I0yJ_X7uyPmoJWzKRYDuA,ChIJNaeX0RAE9YgRyROTgp93Rbk,Tacos & Tequilas Mexican Grill,"650 Ponce De Leon Ave NE, Atlanta, GA 30308",Atlanta,30308,33.773801,-84.3667976,3.5,608,4.4,4890,0.7427648899,"Mexican, Restaurants","restaurant, food",1
hfaN7gunkikYjXM8n2Nl5w,ChIJu3bFIBoE9YgR4Ws7IwOzuHE,The Bookhouse Pub,"736 Ponce De Leon Ave NE, Atlanta, GA 30306",Atlanta,30306,33.7743972,-84.3626944,3.5,354,4.5,824,0.725879288,"Nightlife, Pubs, Restaurants, Bars","bar, restaurant, food",1
dWBKYjQ3q2v2dOjsfLLxDg,ChIJG7dvuIsD9YgRDhD_bJYPiTY,The BQE Restaurant & Lounge,"262 Edgewood Ave NE, Atlanta, GA 30303",Atlanta,30303,33.754583,-84.3791614,3.5,1068,4,3592,0.7082670588,"Soul Food, Restaurants, Southern, Nightlife, Lounges, Breakfast & Brunch, Bars","bar, restaurant, food",1
tDv2qG4N7PsYLN0QYuuaZQ,ChIJq-daJ0ME9YgR3GpEGsLo-aQ,Bulla Gastrobar,"60 11th St NE, Atlanta, GA 30309",Atlanta,30309,33.7835245,-84.3847277,4.5,526,4.8,6773,0.8839161154,"Mediterranean, Restaurants, Tapas/Small Plates, Spanish, Gastropubs, Tapas Bars","bar, restaurant, food",1
5-nUL-_CTYIzya5WG7bf5A,ChIJp-YA7RAE9YgRcNLjwszfPHc,H&F Burger,"675 Ponce De Leon Ave NE, Atlanta, GA 30308",Atlanta,30308,33.7728431,-84.3653233,3.5,468,3.9,1106,0.6732526118,"Restaurants, Burgers, American (Traditional)","restaurant, food",1
c7QhpPHooglReT3aMPKIuw,ChIJQ4Lu83cH9YgRK88SiTL1-Uo,Gokul Sweets,"1707 Church Street, 8 C-8 C, Decatur, GA 30033, United States",Decatur,30033,33.7969582,-84.2809346,3,48,3.8,895,0.576073619,"Indian, Restaurants, Food, Bakeries, Desserts, Vegetarian","restaurant, food",1
78ocP9YyQFrYtIO1TTle2A,ChIJOcPQQEYF9YgR-9zl_N77fX8,Zunzi's,"1971 Howell Mill Rd, Atlanta, GA 30318",Atlanta,30318,33.8084873,-84.4126106,4.5,228,4.7,732,0.837859767,"African, Restaurants, Sandwiches, South African, Caterers, Event Planning & Services","restaurant, food",1
g054fm9YT05YWuWtZlomzg,ChIJ4fcQwpMO9YgRHBQEbIy-0Gg,Hearth Pizza Tavern,"5992 Roswell Rd NE, Sandy Springs, GA 30328",Sandy Springs,30328,33.918662,-84.381771,4,459,4.5,964,0.781523406,"Restaurants, Gastropubs, American (New), American (Traditional), Pizza","meal_delivery, meal_takeaway, bar, restaurant, food",1
GUKG5CboVhI_csCs52vGcA,ChIJq1aef34F9YgRec_j9m_pSZ8,Big Easy Snoballs,"728 Monroe Dr NE ste a, Atlanta, GA 30308, United States",Atlanta,30308,33.7743895,-84.3712122,4,33,4,204,0.6750596723,"Shaved Snow, Shaved Ice, Juice Bars & Smoothies, Desserts, Restaurants, Cajun/Creole, Food",food,1
bSy6VVJIdYPza1Bj9_Eicw,ChIJmWtiNYwF9YgRmK90Q2MB4oI,The Capital Grille,"255 East Paces Ferry Rd NE, Atlanta, GA 30305",Atlanta,30305,33.8388289,-84.3791169,4.5,470,4.7,1442,0.8560780234,"American (Traditional), Bars, Steakhouses, Seafood, Wine Bars, Restaurants, Nightlife","bar, restaurant, food",1
fGcb71-JEWUhasyc9vUxuw,ChIJbbz2tT0E9YgR9wdL4GlVGc0,Mediterranean Grill,"985 Monroe Dr NE, Atlanta, GA 30308",Atlanta,30308,33.781347,-84.36833,4,314,4.3,682,0.7520616943,"Mediterranean, Restaurants, Middle Eastern, Greek","restaurant, food",1
IXi0TYqFJJUIzUaUs_OX1A,ChIJL6awr2UP9YgReeAQ-x0EBnQ,Panera Bread,"3714 Roswell Rd NE, Atlanta, GA 30342",Atlanta,30342,33.856526,-84.382783,2.5,61,3.4,379,0.48078768,"Soup, Salad, Bakeries, Bagels, Breakfast & Brunch, Restaurants, Food, Sandwiches, American (Traditional)","cafe, meal_takeaway, bakery, restaurant, food",1
MDtuW6dXzF8-6xjwaBpRvQ,ChIJQab4HfgD9YgRSiCedOs3fi0,Bell Street Burritos,"112 Krog St NE #1A, Atlanta, GA 30307",Atlanta,30307,33.7558284,-84.3650359,3.5,114,4.2,568,0.6745571608,"Mexican, Restaurants","restaurant, food",1
wKZG12fknq8L7Lq68N_WcQ,ChIJK1vEDJYI9YgRz1hxW1ZzjLY,The One Sushi+,"2523 Caldwell Rd NE Ste 1000, Brookhaven, GA 30319",Brookhaven,30319,33.8611683,-84.3319536,4,318,4.2,273,0.7327484893,"Salad, Thai, Restaurants, Asian Fusion, Sushi Bars, Tapas Bars, Japanese","restaurant, food",1
Ky12BdI2NePHGvkDhoeXFQ,ChIJ1_xvcY4F9YgRt4Fsgwz-ENY,Gypsy Kitchen,"3035 Peachtree Rd NE Ste A209, Atlanta, GA 30305",Atlanta,30305,33.8379035,-84.3806417,4,643,4.6,2881,0.8081239645,"Restaurants, Spanish, Tapas/Small Plates, Moroccan, Cocktail Bars, Bars, Nightlife","bar, restaurant, food",1
j0VWgf2QhoxpTLnODZxnnw,ChIJ_foE_xUH9YgRYwptlBj6-7E,Sidechick,"125 Clairemont Ave, Decatur, GA 30030",Decatur,30030,33.7764512,-84.2959594,4.5,145,4.4,220,0.7884076689,"Salad, Sandwiches, American (New), Diners, Restaurants, American (Traditional), Chicken Shop, Breakfast & Brunch","restaurant, food",1
22hj4BnHMOmQDfnwyGSANA,ChIJAUkQkcEJ9YgRqyllAaR3ml8,Yebisuya,"6035 Peachtree Rd #A-105, Doraville, GA 30360",Doraville,30360,33.9078137,-84.286817,3.5,180,4.2,736,0.6842739378,"Nightlife, Ramen, Restaurants, Sushi Bars, Japanese, Bars, Asian Fusion","restaurant, food",1
TrGRWcKEn5xZtOCMmoCQcg,ChIJOXcoQj4H9YgRJsVelsDUZ6U,Calle Latina,"627 E College Ave Suite A, Decatur, GA 30030",Decatur,30030,33.7732744,-84.2856253,4,304,4.3,784,0.7530111567,"Peruvian, Desserts, Caterers, Restaurants, Specialty Food, Food, Latin American, Event Planning & Services, Ethnic Food","restaurant, food",1
7VXBO4zwHHyPqQlS_uOayQ,ChIJA2wAvhAE9YgRTKeHlLSA7Fk,Minero,"675 Ponce De Leon Ave NE UNIT 136, Atlanta, GA 30308",Atlanta,30308,33.7728558,-84.3657408,3.5,468,4.1,1163,0.6937753094,"Restaurants, Mexican, Nightlife, Bars","restaurant, food",1
#NAME?,ChIJeSdI_2oF9YgRZFC4xO1Bbk0,Starbucks,"550 Peachtree St NE, Atlanta, GA 30308",Atlanta,30308,33.7685663,-84.3861178,2.5,46,3.9,24,0.4981684657,"Food, Food Stands, Sandwiches, Coffee & Tea, Restaurants","cafe, food",1
gGGMXH8kSnEkbezDIdyKmg,ChIJBwuJ8kIF9YgRbG2qpVzSzjM,Aviva by Kameel Midtown,"756 W Peachtree St NW suite G, Atlanta, GA 30332",Atlanta,30332,33.7755261,-84.3880798,5,20,4.8,411,0.8548650228,"Restaurants, Middle Eastern, Mediterranean","restaurant, food",1
BeYRm-ltPXo0zgrk5gaJpA,ChIJ1_R5alcP9YgRHsXjiCvg0Q8,Trade Root,"3434 Peachtree Rd NE, Atlanta, GA 30326",Atlanta,30326,33.8505771,-84.3636634,3.5,14,4.1,37,0.6048419428,"Southern, Restaurants, Mediterranean, American (New)","restaurant, food",1
boPIehJqIK-c62FdWvApXw,ChIJ1w1o388J9YgRJQo8_sYxWyk,Mozart Bakery,"5301 Buford Hwy NE, Atlanta, GA 30340",Atlanta,30340,33.8967006,-84.2808411,3.5,130,4.1,287,0.6594856156,"Korean, Bakeries, Food, Restaurants, Bubble Tea","bakery, cafe, food",1
jWgIJ33n6K7LDUtucE5QXA,ChIJQUvv7tsJ9YgRqwFhrqLYluQ,La Casona Colombian Restaurant,"3820 Stewart Rd, Doraville, GA 30340",Doraville,30340,33.9027158,-84.2759199,4,112,4.3,1170,0.7417990849,"Mexican, Latin American, Restaurants, Colombian","restaurant, food",1
kdcnUiHns8Ni04Vl6VOikQ,ChIJnfPLv18P9YgR7mYOO_Z0b44,Blue Ridge Grill,"1261 W Paces Ferry Rd NW, Atlanta, GA 30327",Atlanta,30327,33.8496473,-84.4292192,4,207,4.6,810,0.7774230822,"Bars, Seafood, American (New), Restaurants, Nightlife, American (Traditional), Steakhouses","restaurant, food",1
j_auWfMqHcOi6DiYg-RxLA,ChIJx9EaGRoE9YgR7Je8EHoBBRo,Chipotle Mexican Grill,"718 Ponce De Leon Ave NE, Atlanta, GA 30306",Atlanta,30306,33.7739218,-84.3635653,2.5,227,3.5,1868,0.5275363615,"Restaurants, Fast Food, Mexican","restaurant, food",1
OfTuwieBPSEAYfEW12-oZA,ChIJhTB2zsEJ9YgRWRrXTeR0l5w,Snackboxe Bistro,"6035 Peachtree Rd Suite C-114, Doraville, GA 30360",Doraville,30360,33.9090083,-84.288057,4,310,4.5,609,0.7706870387,"Soup, Laotian, Asian Fusion, Restaurants","restaurant, food",1
qZM0JJpFNOCajK0_-ompmw,ChIJx6kex_wD9YgRIouzCOksbmU,Muchacho,"904 Memorial Dr SE, Atlanta, GA 30316",Atlanta,30316,33.7467732,-84.3579816,4,209,4.4,1354,0.762914857,"Food, Cafes, Restaurants, Coffee Roasteries, Mexican, Tacos, Coffee & Tea","bar, cafe, restaurant, food",1
dkMHVN7usF67fleQzfMH6Q,ChIJDc1o0FIP9YgR9qnUum3iL5Y,Nuts 'n Berries,"4274 Peachtree Rd, Brookhaven, GA 30319, United States",Brookhaven,30319,33.8679911,-84.335668,4.5,30,4.7,74,0.7831612771,"Food, Nutritionists, Counseling & Mental Health, Fruits & Veggies, Local Flavor, Restaurants, Fitness & Instruction, Health & Medical, Specialty Food, Yoga, Active Life, Vegetarian, Gyms, Health Markets",health,1
3ZVgig7uux9jVtEZna5NgA,ChIJkW7jafEF9YgRbuurmhrQC00,Kyma,"3085 Piedmont Rd NE, Atlanta, GA 30305",Atlanta,30305,33.839858,-84.3690368,4,508,4.4,1094,0.7744065276,"Vegan, Restaurants, Seafood, Mediterranean, Greek","bar, restaurant, food",1
WVd6h5r-xiySmBoEFTOZKA,ChIJH5ygHV0J9YgR3EU-bZVN6-k,The Brass Tap,"4505 Ashford Dunwoody Rd Suite 32, Atlanta, GA 30346",Atlanta,30346,33.9248539,-84.3360458,3.5,124,4.3,842,0.6899405611,"Sports Bars, Restaurants, Beer Bar, Gastropubs, Burgers, American (New), Beer Gardens, Nightlife, Salad, Mediterranean, Bars",bar,1
hC8tjO56pqSynapvplVe3Q,ChIJ3dQwth4F9YgR4fMnOQyy_LY,McDonald's,"1994 Howell Mill Rd, Atlanta, GA 30318",Atlanta,30318,33.8092173,-84.4132282,1.5,50,3.1,1249,0.3601593695,"Fast Food, Burgers, Restaurants, Coffee & Tea, Food","restaurant, cafe, food",1
_iqFvc3zToL08WZrNeFP3Q,ChIJ07TVp0ME9YgRmzH4SKordbc,STK Steakhouse,"1075 Peachtree St NE, Atlanta, GA 30309",Atlanta,30309,33.7840453,-84.3827642,4,1199,4.5,13297,0.8236805563,"Nightlife, Steakhouses, Bars, Fast Food, Cocktail Bars, Restaurants, American (New)","night_club, bar, restaurant, food",1
ptaI45_CQ-FFw5_r85xUdg,ChIJfTK9iWcE9YgRXwVbE8uuS18,Marlow's Tavern,"950 W Peachtree St NW #215, Atlanta, GA 30309",Atlanta,30309,33.7796863,-84.3874931,4,564,4.4,1998,0.7822888313,"Restaurants, Bars, Pubs, Nightlife, American (New), Burgers, Gastropubs","beauty_salon, bar, restaurant, food",1
kzI-UeuLWwjOu6mwZ_3dyA,ChIJHyiSb2AJ9YgR4hXzEGdTVc0,The Bird,"4719 Ashford Dunwoody Rd Suite 101, Dunwoody, GA 30338",Dunwoody,30338,33.931956,-84.3324065,3.5,84,4.3,448,0.6774105024,"Bars, Nightlife, Restaurants, American (Traditional), Chicken Wings, Sports Bars","bar, restaurant, food",1
6vjSfouvB1gxZumlzsnQSA,ChIJD-rdNYED9YgRruCclpqiW4I,Summit Cafeteria,"30 Marietta St NW, Atlanta, GA 30303",Atlanta,30303,33.7549918,-84.3908743,2.5,9,4.2,356,0.5318843448,"Restaurants, Barbeque, American (Traditional)","restaurant, food",1
xCWwaGpb6YJoErcADJM6rA,ChIJUc63DkIG9YgR3CxI5cTHxrI,Mellow Mushroom Atlanta - Emory,"1679 Lavista Rd NE, Atlanta, GA 30329",Atlanta,30329,33.816166,-84.332824,4,204,4.3,946,0.7488120634,"Pizza, Restaurants, Nightlife, Bars, Sandwiches","restaurant, food",1
vtNjXEn0UgTF0CI3Io5ZeQ,ChIJJ1BkW6AG9YgR4Rc4kscOPC4,The Warren City Club,"818 North Highland Avenue Northeast, Atlanta, GA 30306, United States",Atlanta,30306,33.7768488,-84.3526178,3.5,93,4.3,268,0.6736355604,"Bars, Venues & Event Spaces, Event Planning & Services, Breakfast & Brunch, Nightlife, American (New), Restaurants, Lounges","night_club, bar, restaurant, food",1
TWrjCaozOU_D3lTjT9_99A,ChIJT9fzQXgE9YgRh3qCiYyrNJI,Hard Rock Cafe,"215 Peachtree St NE, Atlanta, GA 30303",Atlanta,30303,33.7598163,-84.3874499,3,487,4.1,6345,0.6620460777,"Restaurants, Venues & Event Spaces, Burgers, Event Planning & Services, Arts & Entertainment, American (New), Music Venues, American (Traditional), Nightlife","bar, restaurant, food",1
24VAjD2pvFPJw5puUx2khA,ChIJ34D1pboP9YgROlN7iDG53rU,Fia Restaurant,"3600 Piedmont Rd NE, Atlanta, GA 30305",Atlanta,30305,33.8525078,-84.3813308,4.5,55,4.6,208,0.7929877818,"Restaurants, American (New), Mediterranean, Seafood","restaurant, food",1
4sjIZNWE9CuwcTxMj8Xfvw,ChIJ44V6YncJ9YgReLJTiMteAaQ,Vino Venue,"Shopping Center, 4478 Chamblee Dunwoody Road Georgetown, Atlanta, GA 30338, United States",Atlanta,30338,33.9211942,-84.3158932,4,163,4.6,147,0.7560338711,"Arts & Crafts, Nightlife, American (New), Cooking Classes, Bars, Education, Tasting Classes, Wine Tasting Classes, Cooking Schools, Restaurants, Tapas Bars, Shopping, Specialty Schools, Wine Bars","restaurant, liquor_store, bar, food",1
G04VFGY1kaN2jZYXUrbRbg,ChIJOWnIdCAM9YgR-Kf_jgsUMHc,Abuelos Mexican Kitchen and Cantina,"6631 Roswell Rd, Sandy Springs, GA 30328",Sandy Springs,30328,33.936241,-84.376587,4,199,4.4,836,0.7571442589,"Seafood, Soup, Tapas Bars, New Mexican Cuisine, Tex-Mex, Mexican, Restaurants, Salad","bar, restaurant, food",1
_lEHolD7sVt4-SnbuuAgcA,ChIJxRgrY5ME9YgRcltyIvXeq8A,Eight Sushi Lounge,"930 Howell Mill Rd NW, Atlanta, GA 30318",Atlanta,30318,33.7800074,-84.4118482,4.5,909,4.7,1844,0.8688347414,"Cocktail Bars, Lounges, Bars, Restaurants, Japanese, Nightlife, Sushi Bars","restaurant, food",1
pWxDQFGkzUKuFuz-oNulXw,ChIJ35ESWtoJ9YgRAftyLyrRQws,Happy Karaoke,"5425 Buford Hwy NE, Doraville, GA 30340",Doraville,30340,33.9000858,-84.2772021,3.5,113,4.1,532,0.6637414989,"Bars, Korean, Nightlife, Karaoke, Afghan, Restaurants","night_club, bar, restaurant, food",1
mUYx6CkbQLp3KCjF5LfSIw,ChIJj4SHuGUP9YgR3KGyatmc3qo,The Ivy,"3717 Roswell Rd, Atlanta, GA 30342",Atlanta,30342,33.8564887,-84.3822079,3,181,4.1,807,0.6253167524,"Sports Bars, Bars, American (New), Venues & Event Spaces, Restaurants, Event Planning & Services, Food, Nightlife, Gastropubs","bar, restaurant, food",1
ouGTSelPlQwWURHJeAyk5w,ChIJwZY5KXgE9YgR-xKMdXMj_no,Gibney's Pub,"231 Peachtree Center Ave NE, Atlanta, GA 30303",Atlanta,30303,33.7603573,-84.3862048,3.5,218,4.1,1035,0.6807701427,"Pubs, Nightlife, Restaurants, Bars, American (Traditional)","restaurant, bar, food",1
iPKmtXMyqzk_uK26Hxk0MA,ChIJRdGAHUQD9YgRfddZIRjNQeo,Sweet-Stack Creamery,"25 Piedmont Ave NE, Atlanta, GA 30303, United States",Atlanta,30303,33.7552212,-84.3820736,4.5,284,4.3,533,0.7979498772,"Restaurants, Ice Cream & Frozen Yogurt, Desserts, Vegan, Food, Donuts","bakery, tourist_attraction, restaurant, food",1
gZUaF1vSUvUadpbRUvHYqQ,ChIJg-OadUME9YgRlZVV3KbdusI,The Oceanaire Seafood Room,"1100 Peachtree St NE, Atlanta, GA 30309",Atlanta,30309,33.7846271,-84.3832344,3.5,447,4.3,1703,0.717033552,"Seafood, Restaurants, American (Traditional)","restaurant, food",1
K2KLY2Ita4Av0jkJFXFBPQ,ChIJvdNpzpQO9YgRu86kWDuzqoI,Double Zero,"1577 N Decatur Rd, Atlanta, GA 30307",Atlanta,30307,33.7879758,-84.3261946,4,169,4.6,857,0.774885608,"Italian, Restaurants, Pizza, Bars, Cocktail Bars, Nightlife, American (New)","restaurant, food",1
Oh3cSU8SxTusGKGcjTkWCQ,ChIJ_ypiix4F9YgRTVaO3QXzpxg,Willy's Mexicana Grill,"1920 Howell Mill Rd NW, Atlanta, GA 30318",Atlanta,30318,33.8072884,-84.4131375,3.5,95,4.4,1058,0.6982277991,"Restaurants, Mexican, Fast Food","restaurant, food",1
UDGvoDycG7I9osVIXvUwZQ,ChIJDYKGgZAO9YgR59RsH-O-nss,Little Thai Cuisine,"220 Sandy Springs Cir #209, Sandy Springs, GA 30328",Sandy Springs,30328,33.9256733,-84.3834892,4,263,4.3,615,0.748251797,"Noodles, Restaurants, Soup, Thai","restaurant, food",1
ldvPr7TxCAdPHpnr5cDrNw,ChIJkSmbIs0F9YgR-gRLLgU6Tqg,Twin Peaks,"3365 Piedmont Rd NE, Atlanta, GA 30305",Atlanta,30305,33.8474539,-84.372827,3,592,4.4,5833,0.694188051,"Bars, American (Traditional), Sports Bars, Nightlife, Comfort Food, American (New), Restaurants","bar, restaurant, food",1
foo5OSd_H0xLGvCrtor4gA,ChIJo1urGO4G9YgRfTe-O1aEnL4,Chipotle Mexican Grill,"1401 Oxford Rd NE, Atlanta, GA 30307",Atlanta,30307,33.7886373,-84.3266597,3,71,3.3,436,0.5245581867,"Restaurants, Mexican, Fast Food","restaurant, food",1
_2LfhO4Mqa-owUtSFgSblA,ChIJExHbVgEE9YgRr3C4gEB_4_8,BeetleCat,"299 North Highland Avenue Northeast, Atlanta, GA 30307",Atlanta,30307,33.7626776,-84.3582131,4,845,4.5,2204,0.7995611388,"Seafood, Desserts, Restaurants, Bars, Food, Nightlife","bar, restaurant, food",1
Ycjj72M8c9UM7HvQ7JaqHA,ChIJUakIIF6n9YgRC7d4ojj40Qg,Bellaggio's Ice-Cream,"5805 Buford Hwy NE # C1, Doraville, GA 30340, United States",Doraville,30340,33.9088107,-84.2663051,4.5,5,4.6,39,0.7723741336,"Juice Bars & Smoothies, Ice Cream & Frozen Yogurt, Mexican, Latin American, Food, Restaurants",food,1
eXFhL1aOyXP2aoU8qgC26Q,ChIJK8l_oLMH9YgRD86b_018EQo,Goldbergs Fine Foods - Toco Hills,"3003 N Druid Hills Rd, Atlanta, GA 30329",Atlanta,30329,33.8131678,-84.3101588,3.5,332,4.4,797,0.7145422163,"Event Planning & Services, Bagels, Food, Restaurants, Delis, Caterers, Sandwiches","restaurant, bakery, food",1
hEH1IAmc34s3NTgQMY-iwA,ChIJTey2Fj4H9YgRH5LEatMQhxU,no. 246,"129 E Ponce de Leon Ave, Decatur, GA 30030",Decatur,30030,33.775504,-84.2953432,4,683,4.6,1125,0.7992731632,"Restaurants, Chinese, Italian","bar, restaurant, food",1
tYl4Ub7wKye1D0CR8yLxHw,ChIJ87OD1gQJ9YgRw9Pb3yTq7mY,Crazy Skewers,"6035 Peachtree Rd A118, Doraville, GA 30360",Doraville,30360,33.9075172,-84.2875637,4,8,4.3,231,0.685765917,"Barbers, Chinese, Beauty & Spas, Restaurants, Hot Pot, Asian Fusion","restaurant, food",1
6J-lSviMGkXXPldhncba_Q,ChIJCQfrG2EG9YgR4nvlXQ1Cep8,Thaicoon & Sushi Bar,"1799 Briarcliff Rd NE Suite W, Atlanta, GA 30306",Atlanta,30306,33.8044728,-84.3355967,4,362,4.5,670,0.7740734172,"Restaurants, Sushi Bars, Thai, Japanese","restaurant, food",1
lkDa4a8i5gpxxXgdOLyPZg,ChIJIfNRZPEF9YgRlWm3MZodp1U,Buckhead Bread Company,"3070 Piedmont Rd NE, Atlanta, GA 30305",Atlanta,30305,33.8392118,-84.3694866,3,67,4.5,150,0.6326103309,"Food, Restaurants, Bakeries","bakery, food",1
lZ9xOCyw0e4PK7pAximc-w,ChIJ5z6hupQO9YgRWQv0Saa4_J8,Tropical Smoothie Cafe,"5840 Roswell Rd, Sandy Springs, GA 30328",Sandy Springs,30328,33.914766,-84.380175,2.5,35,4,284,0.5293748196,"Specialty Food, Juice Bars & Smoothies, Restaurants, Sandwiches, Cafes, Wraps, Health Markets, Food","cafe, restaurant, food",1
vA8cbsYNex_24s2rXsg2GQ,ChIJZ1BIovoF9YgRE-VsD_pb4FU,NM Cafe,"3393 Peachtree Rd NE, Atlanta, GA 30326",Atlanta,30326,33.8462008,-84.363801,3.5,34,4.3,31,0.6361733983,"American (New), Restaurants, Cafes","restaurant, cafe, bar, food",1
whN495XuRcLNz2V6sq-4fw,ChIJs3Tz5XAD9YgRNP6XPSxG1iw,Coffee Loft,"322 Peters St SW, Atlanta, GA 30313",Atlanta,30313,33.7459083,-84.4031996,4.5,9,4.8,11,0.7565633016,"Cafes, Caterers, Themed Cafes, Fashion, Restaurants, Event Planning & Services, Food, Coffee & Tea, Shopping, Used, Vintage & Consignment, Arts & Entertainment, Art Galleries","cafe, food",1
NIGs8_UtdN4rYlOMWYZc-w,ChIJk-cctMUE9YgRDEJ2m8j7umg,The Whelan,"1133 Huff Rd NW, Atlanta, GA 30318",Atlanta,30318,33.7891432,-84.4261825,3.5,102,4.5,680,0.7047212307,"Bars, Pubs, Nightlife, American (New), Restaurants, African, Pool Halls, South African","bar, restaurant, food",1
ZdEohT36LcY3eKh4fJMGRQ,ChIJKTCYSYwF9YgRouFNJAfGDjg,Cafe Agora,"318 East Paces Ferry Rd NE, Atlanta, GA 30305",Atlanta,30305,33.8395532,-84.3774162,4,731,4.4,1270,0.781584453,"Turkish, Restaurants, Mediterranean, Greek","restaurant, food",1
5enPbMFK_ZAtoVzlU0dtFg,ChIJIxYi-KYF9YgRGqHsohBT9pw,Alma Cocina Buckhead,"Terminus 100, 3280 Peachtree Rd NE #100, Atlanta, GA 30305",Atlanta,30305,33.8444521,-84.3706452,4.5,42,4.4,365,0.7747303579,"Mexican, Restaurants","restaurant, food",1
uO4A77jXMPfZmlbf_52zRw,ChIJv3AGUvgD9YgRoeQkBXeuLHM,BoccaLupo,"753 Edgewood Ave NE, Atlanta, GA 30307",Atlanta,30307,33.7548191,-84.3627885,4.5,552,4.6,924,0.8439339813,"Restaurants, Italian, American (Traditional)","restaurant, food",1
VGHMNIccTuq_xBrHmxkoCQ,ChIJ_Qmk-UgF9YgRpPH460NFI8k,Bao Bun Hibachi,"1715 Howell Mill Rd NW Suite # C15-A, Atlanta, GA 30318",Atlanta,30318,33.8011912,-84.4134362,4.5,94,4.7,310,0.8153097967,"Restaurants, Chinese, Taiwanese, Asian Fusion","restaurant, food",1
GusjB8WXmuzTFLgZHYMFQg,ChIJFYUaTxEE9YgRMxbrCF74tt8,Cook Out,"544 Ponce De Leon Ave NE, Atlanta, GA 30308",Atlanta,30308,33.7741757,-84.3691819,3.5,126,4,2614,0.6719715918,"Desserts, Fast Food, Hot Dogs, American (Traditional), Burgers, Food, Restaurants","restaurant, food",1
Pl_BSZM-dS1R9v29H0hV_Q,ChIJD1HvOe4G9YgRaeWRm-QXGr4,Wagaya - Emory Village,"1579 N Decatur Rd, Atlanta, GA 30307",Atlanta,30307,33.7879848,-84.326012,4,142,4.3,450,0.735512024,"Sushi Bars, Japanese, Noodles, Seafood, Restaurants","restaurant, food",1
F0eaHDnN_-zF7KPZu1a2NQ,ChIJpcR_xvUF9YgRbjaAqcTniZo,Industry Tavern,"3280 Peachtree Rd NE #187, Atlanta, GA 30305",Atlanta,30305,33.8451745,-84.3713644,4,503,4.4,1412,0.7769079309,"Restaurants, Nightlife, Food, Beer, Wine & Spirits, Sports Bars, American (New), Breakfast & Brunch, Bars, Pizza","bar, restaurant, food",1
58UbC9XukpoPC2fXGIlPiw,ChIJRVrGmoAD9YgRp93QXijuJrQ,Park Bar,"150 Walton St NW, Atlanta, GA 30303",Atlanta,30303,33.7581973,-84.3927991,4,509,4.3,2349,0.7723870118,"Bars, Burgers, Nightlife, Restaurants","bar, restaurant, food",1
5-vaXvGIOVM_oORVNm63cw,ChIJTQI8-SUH9YgRIjiLOqEBaRQ,The Imperial,"726 W College Ave, Decatur, GA 30030",Decatur,30030,33.7661111,-84.3063889,4,92,4.6,495,0.7598397577,"Bars, Nightlife, Pubs, Restaurants",bar,1
qFBZbAwolnmlkV4SEwn-nA,ChIJoww2mdIF9YgRKc2p-x0SMEI,Maple Street Biscuit Company,"1085 Howell Mill Rd, Atlanta, GA 30318",Atlanta,30318,33.7846004,-84.4116244,3.5,50,4.1,517,0.6509885156,"Coffee Roasteries, Acai Bowls, Comfort Food, Sandwiches, Food, Restaurants","restaurant, food",1
Gwi9PMVb61nrrpUNa9_wfQ,ChIJWba4QUME9YgR4OgI_SW1htk,Lure,"1106 Crescent Ave NE, Atlanta, GA 30309",Atlanta,30309,33.7850084,-84.3844183,4,578,4.5,1150,0.7869210954,"Nightlife, Restaurants, Bars, Arts & Entertainment, Music Venues, Breakfast & Brunch, Seafood","restaurant, food",1
jJ1ecSluTUZO6rm-zsDrRg,ChIJNzxNN2QE9YgR-cGg6GQ6Xsk,Sweet & Fresh,"708 Spring St NW, Atlanta, GA 30308, United States",Atlanta,30308,33.7740199,-84.3890405,2.5,11,4,681,0.521446267,"Salad, Juice Bars & Smoothies, Bubble Tea, Burgers, Desserts, Restaurants, Chicken Wings, Food","restaurant, meal_takeaway, cafe, food",1
UExp6ewvtYnEC4W9rUopxg,ChIJty6BW6AG9YgRwQH3I49L3jA,10 High Club,"816 North Highland Avenue Northeast, Atlanta, GA 30306, United States",Atlanta,30306,33.7767755,-84.3526953,3,19,4.4,56,0.5935178259,"Nightlife, Bars, Restaurants, Burgers, Karaoke, Music Venues, Arts & Entertainment, Tapas Bars","night_club, bar",1
cZmnKz8AnTVoDLTGbpK_yQ,ChIJq6pqswQE9YgRC4eUgTwVbF4,Bully Boy,"828 Ralph McGill Blvd NE, Atlanta, GA 30306",Atlanta,30306,33.7687334,-84.3607037,4,105,4.6,361,0.7585872274,"Nightlife, Food, Cocktail Bars, Bars, Seafood, Restaurants, Beer, Wine & Spirits, Chicken Wings","restaurant, bar, food",1
ZItpPoBlPjIL9-xyu8hWjQ,ChIJCz-_UOAE9YgRwwt4KPRmmrY,Taco Bell,"1761 Howell Mill Rd NW, Atlanta, GA 30318",Atlanta,30318,33.8020738,-84.4147128,2.5,42,3.9,1433,0.5389468275,"Restaurants, Tex-Mex, Tacos, Mexican, Fast Food, Breakfast & Brunch","meal_takeaway, restaurant, food",1
#NAME?,ChIJXWIDReoH9YgRVxdJvfvhAeg,noodle,"205 E Ponce de Leon Ave, Decatur, GA 30030",Decatur,30030,33.7753869,-84.2945646,3,264,4.2,290,0.630503262,"Vietnamese, Sushi Bars, Asian Fusion, Pan Asian, Noodles, Japanese, Restaurants, Thai","restaurant, food",1
3ZvvF1M4NJF5jZUkqhxQbw,ChIJdaKB8fYD9YgRucANv8cv7b4,Thumbs Up Diner,"573 Edgewood Ave SE, Atlanta, GA 30312",Atlanta,30312,33.7540864,-84.36852,4,578,4.6,2883,0.8064836286,"Diners, Food, Smokehouse, Breakfast & Brunch, Restaurants","restaurant, food",1
8_Om89cZiqdOCp092PtpzA,ChIJDV1VJ1b99IgRJMUTL4Za-qs,D'essence Cafe,"3056 Bayard St, East Point, GA 30344",East Point,30344,33.6716667,-84.4313889,3,21,4.3,283,0.6017121737,"Bed & Breakfast, Coffee & Tea, Soul Food, Restaurants, Breakfast & Brunch, Food, Seafood, Hotels & Travel","restaurant, cafe, food",1
u-4wti774tFcYRLuQrnHEg,ChIJPaAgP6wG9YgRGRcSsxETyjE,Fox Bros. Bar-B-Q,"1238 DeKalb Ave NE, Atlanta, GA 30307",Atlanta,30307,33.761116,-84.3474944,4.5,3825,4.6,8958,0.8975238388,"Southern, Restaurants, Barbeque, American (Traditional)","bar, restaurant, food",1
RxFswqKnQILkQUDw_eKcQQ,ChIJ6V-08HkE9YgRvZopWFm3U4w,Max Lager's Wood-Fired Grill & Brewery,"320 Peachtree St NE, Atlanta, GA 30308",Atlanta,30308,33.7633384,-84.3869351,3.5,878,4.1,1302,0.7046771567,"Nightlife, American (Traditional), Pizza, Brewpubs, Restaurants, Pubs, Sports Bars, Bars, Breweries, Food","bar, restaurant, food",1
kcvQRxHBtVccqi5vC0jOdw,ChIJNdTaxhUH9YgR0YyPfVSd1H4,Las Brasas,"614 Church St, Decatur, GA 30030",Decatur,30030,33.7782789,-84.2951354,4,252,4.3,1500,0.7568647617,"Restaurants, Latin American, Peruvian","restaurant, food",1
CtLkcQFkjdFHVtq2_Qbceg,ChIJU9AJj3kD9YgRDq8FDhlqNfc,ADios Cafe,"180 Walker St SW ste d, Atlanta, GA 30313",Atlanta,30313,33.7498833,-84.4009735,4.5,276,4.5,522,0.8172923021,"Desserts, Restaurants, Breakfast & Brunch, Food, Chocolatiers & Shops, Coffee & Tea, Specialty Food","bar, restaurant, cafe, food",1
cUUbjLPBwHu3FairSxIXrA,ChIJM_BtKBYE9YgRsbkbBU_nNYg,Apres Diem,"931 Monroe Dr NE St C103, Atlanta, GA 30308",Atlanta,30308,33.7791667,-84.3672222,3.5,587,4.4,1438,0.7294847895,"Coffee & Tea, Cocktail Bars, Desserts, Restaurants, Cafes, French, Beer, Wine & Spirits, Mediterranean, Nightlife, Food, Modern European, Bars, American (New)","night_club, cafe, bar, restaurant, food",1
7IAJDqxHWPpmsRoCvJtpOQ,ChIJWW1dcakG9YgRoZwfGanhMkY,Elmyr,"1091 Euclid Ave NE, Atlanta, GA 30307",Atlanta,30307,33.7635877,-84.3513296,3.5,360,4.3,812,0.705986284,"Nightlife, Dive Bars, Mexican, Restaurants, Bars","bar, restaurant, food",1
HVMQidKegc9wqCBtB8dMsQ,ChIJBydgGOIE9YgRQqGGytMTN4o,Extreme Teriyaki Grill Express,"1801 Howell Mill Rd NW #610, Atlanta, GA 30318",Atlanta,30318,33.8041224,-84.4126267,3,76,4,478,0.5965531908,"Japanese, Restaurants, Fast Food, Noodles","restaurant, food",1
SpqZEEoqAY88hA3nDIgu7g,ChIJq4vwOXID9YgR-eS6wR_GLk4,hell yeah gluten free,"900 DeKalb Ave NE Suite 500, Atlanta, GA 30307",Atlanta,30307,33.7549586,-84.3576796,4.5,49,4.6,508,0.8004994026,"Food, Cupcakes, Gluten-Free, Restaurants, Donuts, Bakeries","bakery, food",1
QCyl2CV8hKm5xfO1ZBmwWw,ChIJB4yG6XkE9YgRZR6dHNph3d8,Dunkin',"303 Peachtree St, Atlanta, GA 30303",Atlanta,30303,33.762788,-84.385439,4,40,4.1,89,0.6793887383,"Coffee & Tea, Restaurants, Donuts, Breakfast & Brunch, Food","bakery, cafe, meal_takeaway, restaurant, food",1
QkbH0ZEchPRM40C7eS4L5w,ChIJKfpyJ7wD9YgRQTND3S7MgOE,OK YAKI,"714 Moreland Ave SE Suite D, Atlanta, GA 30316",Atlanta,30316,33.7348145,-84.3488241,4.5,23,4.7,401,0.7966769723,"Restaurants, Teppanyaki, Street Vendors, Japanese, Food, Pop-Up Restaurants","restaurant, food",1
L1nn5Cge3wBUHydmX8XwWA,ChIJXUspVBgF9YgRYUZLcsm5Amw,E Ramen +,"1110 W Peachtree St NW #300, Atlanta, GA 30309",Atlanta,30309,33.7850497,-84.3882691,4.5,192,4.7,802,0.8361608514,"Japanese, Tapas/Small Plates, Restaurants, Ramen","restaurant, food",1
jWFtCzCkTFrkLR2XmeWNMQ,ChIJtzptragG9YgReWnn-xcVttI,Aurora Coffee,"468 Moreland Ave NE, Atlanta, GA 30307",Atlanta,30307,33.7670166,-84.349402,4,162,4.6,528,0.7691998056,"Desserts, Food, Coffee & Tea, Sandwiches, Restaurants","cafe, food",1
JfHjNjUM_CJ8nsCxwol7Bw,ChIJqV_vOBwJ9YgR6kLfQQgOzaI,Jo's Grille,"2120 Johnson Ferry Rd NE, Atlanta, GA 30319",Atlanta,30319,33.8929114,-84.3266534,3.5,80,4.5,487,0.6975312041,"Seafood, Burgers, Fish & Chips, Salad, Restaurants, American (Traditional), Sandwiches, Chicken Wings","bar, restaurant, food",1
#NAME?,ChIJHwhNYAEE9YgRCs-R7L-_uWI,Bread & Butterfly,"290 Elizabeth St NE F, Atlanta, GA 30307",Atlanta,30307,33.7624293,-84.3581661,4,380,4.4,964,0.768605591,"Brasseries, Bars, Cocktail Bars, Nightlife, Beer Bar, Restaurants, Cafes, Wine Bars, Breakfast & Brunch, French","cafe, restaurant, food",1
EMsEP4t338gkxtWCKYD0wA,ChIJHe22Q8AD9YgRi3ElKT-IpfU,Grant Park Coffeehouse,"337 Georgia Ave SE, Atlanta, GA 30312",Atlanta,30312,33.7363261,-84.376622,4,190,4.6,815,0.7761667356,"Coffee & Tea, Bakeries, Food, Restaurants, Sandwiches, Ice Cream & Frozen Yogurt","cafe, restaurant, food",1
kRkb0LxOWkq_1WYX6jCJbw,ChIJVxLWgSgB9YgR958jEfiyIoo,M&M’s Comfort Zone,"477 Flat Shoals Ave SE, Atlanta, GA 30316",Atlanta,30316,33.7410039,-84.3464862,5,13,4.8,22,0.8185465529,"Soul Food, Vegetarian, Restaurants, Comfort Food","restaurant, food",1
8CTstZov8LT6t1PCybvFxA,ChIJC1jB5Y4F9YgRSA2D0d6UDJc,Atlas,"88 W Paces Ferry Rd NW, Atlanta, GA 30305",Atlanta,30305,33.8400195,-84.3825727,4,151,4.5,479,0.7571059411,"Nightlife, Bars, Cocktail Bars, American (New), Seafood, Steakhouses, Desserts, Food, Burgers, American (Traditional), Tapas/Small Plates, Restaurants","bar, restaurant, food",1
T_meTjtvslVWMn9_SAA7nA,ChIJ-ZDJVtgJ9YgRPGN6ysScgb0,Dagu Rice Noodle (大鼓米线&奶茶.甜品）,"5090 Buford Hwy NE STE 110-111, Doraville, GA 30340",Doraville,30340,33.8916911,-84.2859507,4,11,4.6,188,0.7180866543,"Specialty Food, Noodles, American (New), Restaurants, Food","cafe, restaurant, food",1
dBkHce7x0YX-ttxV_tkYyg,ChIJNQI4ZukO9YgRqK8XscXd-vM,Taco Mac Prado,"5600 Roswell Rd Ste M-003, Sandy Springs, GA 30342",Sandy Springs,30342,33.9077863,-84.3796406,2.5,366,4.2,1961,0.6054130685,"Chicken Wings, Restaurants, Food, Sports Bars, Beer, Wine & Spirits, Bars, Tex-Mex, American (Traditional), Nightlife","restaurant, bar, food",1
NPvmXg22fSoosrw4LqVu5g,ChIJ8UipissJ9YgR2uSV0Z2rw5Y,Pupuseria Mi Tierra,"5090 Buford Hwy NE #102nd, Doraville, GA 30340",Doraville,30340,33.8913419,-84.285667,3.5,16,4,202,0.614224146,"Restaurants, Latin American","restaurant, food",1
L28p1VK0DUcW4bmkFtizsg,ChIJl8sRfeED9YgRHeeuY-y2Ibg,Vickery's Bar & Grill - Glenwood Park,"933 Garrett St #101-102, Atlanta, GA 30316",Atlanta,30316,33.7404894,-84.3573235,4,201,4.5,1308,0.7719538607,"Bars, American (New), Nightlife, Restaurants, American (Traditional), Breakfast & Brunch","bar, restaurant, food",1
N2DQVIQMPRm9gjK3s7HLAw,ChIJeVNK4HkE9YgRITmjPQ7t2UA,Morton's The Steakhouse,"303 Peachtree Center Ave NE, Atlanta, GA 30308",Atlanta,30308,33.7629543,-84.3861274,3.5,200,4.4,1187,0.7108672735,"American (Traditional), Steakhouses, Nightlife, Bars, Seafood, Restaurants","restaurant, food",1
I-30UyJL2xwLy5911tLeEQ,ChIJtRtfK14I9YgR3ESE108Heyo,Pan American Bakery,"3671 Clairmont Rd, Atlanta, GA 30341",Atlanta,30341,33.8670335,-84.3090267,4.5,41,4.7,115,0.7924038734,"Food, Bakeries, Cuban, Restaurants","bakery, food",1
bJJK4Hgzdedu98FgtKi56Q,ChIJ0wlzYhgH9YgRCqHVSZilEi4,Brew and Bird,"1355 Clairmont Rd, Decatur, GA 30033",Decatur,30033,33.7921953,-84.3051556,4.5,148,4.5,306,0.8021444064,"Beer Bar, Nightlife, Restaurants, Bars, Chicken Wings, Chicken Shop","restaurant, food",1
eG-UO83g_5zDk70FIJbm2w,ChIJvQqtX0ME9YgR-X6ukvNSt6I,South City Kitchen Midtown,"1144 Crescent Ave NE, Atlanta, GA 30309",Atlanta,30309,33.7859545,-84.3844341,4.5,2618,4.6,3663,0.8823464987,"Restaurants, American (New), Southern, Breakfast & Brunch, Gluten-Free","restaurant, bar, food",1
8PcTmvfMShQkdS4qDbyzog,ChIJVQdsPqcG9YgRvrc83SIPnqY,Sweet Auburn BBQ,"656 North Highland Avenue Northeast, Atlanta, GA 30306",Atlanta,30306,33.7723098,-84.3526297,4,648,4.5,2245,0.7956480387,"Cocktail Bars, Nightlife, Restaurants, Barbeque, Asian Fusion, Bars, Sandwiches","restaurant, food",1
f5ED9A2Fl6UFZ_kvXJqfKw,ChIJIxUk8LsI9YgRs_gmrta-A8A,Waffle House,"4065 Peachtree Rd, Atlanta, GA 30319",Atlanta,30319,33.8610887,-84.3391185,3,46,4.2,583,0.6109722089,"Breakfast & Brunch, Diners, American (New), American (Traditional), Waffles, Restaurants","meal_takeaway, restaurant, food",1
yEB_TgDdA84SIsa_Ht3-Pw,ChIJAxtFwoAD9YgRn6a9GRgXY-k,Thrive,"101 Marietta St NW, Atlanta, GA 30303",Atlanta,30303,33.7568984,-84.3922913,3.5,326,4.2,884,0.6953379295,"Bars, Southern, Japanese, Nightlife, Asian Fusion, American (New), Lounges, Restaurants, American (Traditional), Seafood, Sushi Bars","restaurant, night_club, bar, food",1
9VWaP_2svx5SYdAisNkRYQ,ChIJiQcrZfwF9YgR3qW_TvgeJVs,Bar.bacoa,"1000 Virginia Ave NE, Atlanta, GA 30306",Atlanta,30306,33.7824438,-84.3546534,4.5,154,4.6,418,0.8159936465,"Mexican, Restaurants, Spanish, Tapas Bars, Tapas/Small Plates, Bars, Nightlife","bar, restaurant, food",1
ia20AWEC1wSqYNH7zp8Fhg,ChIJPV8hKPcH9YgRc_jLBCXRrds,Kelly's Market,"308 E Howard Ave, Decatur, GA 30030, United States",Decatur,30030,33.7718937,-84.2924361,5,20,4.6,160,0.8250831206,"Food, Beer, Wine & Spirits, Restaurants, Sandwiches, Convenience Stores, Delis, Grocery","grocery_or_supermarket, food",1
1i63faxXI1TQ7pNlLp3IPQ,ChIJweczQWYE9YgRvtwgBTj9cUU,Cypress Street Pint & Plate,"817 W Peachtree St NW, Atlanta, GA 30308",Atlanta,30308,33.7773253,-84.3861456,4,1283,4.5,3243,0.8100410587,"Gastropubs, Restaurants, Burgers, Nightlife, American (New), Salad, Chicken Wings, Bars, Beer Bar, Pubs","bar, meal_delivery, meal_takeaway, cafe, restaurant, food",1
9m5zXmSzm4SjeBRHmur2CQ,ChIJiVJ2dbYP9YgRTm084NPls00,Flower Child,"6400 Blue Stone Rd #170, Sandy Springs, GA 30328",Sandy Springs,30328,33.9255246,-84.3818279,4,136,4.6,903,0.7720873402,"American (New), Restaurants, Vegetarian, Salad","restaurant, food",1
DbFvC1yQPxDCrZ_NdAwYTw,ChIJy10LKloB9YgRXqvd8c51tGY,BURGER WIN,"1181 McPherson Ave SE, Atlanta, GA 30316",Atlanta,30316,33.7429863,-84.3489399,4,150,4.3,312,0.7325523774,"Burgers, Restaurants, Malaysian, Chinese, Chicken Wings","restaurant, food",1
TeyiVl2bIovwNhQqTXC5lQ,ChIJq-YA7RAE9YgR1Pfq5V1II_g,W. H. Stiles Fish Camp,"675 Ponce De Leon Ave NE, Atlanta, GA 30308",Atlanta,30308,33.7728284,-84.3660396,3.5,339,4.3,554,0.7010838815,"Seafood, Sandwiches, Fish & Chips, Restaurants","restaurant, food",1
VV9fKD0FY4EumnmUujNCvA,ChIJteWyUNep9YgR2bnMxhI9fz0,Radio Roasters Coffee,"2969 E Ponce de Leon Ave Suite 320, Decatur, GA 30030",Decatur,30030,33.7829337,-84.2716764,4.5,11,4.7,132,0.7744284271,"Restaurants, Food, Cafes, Coffee Roasteries, Coffee & Tea","cafe, food",1
sAwKqB6XUpGeCTlH47hUkQ,ChIJ7YzaVBwJ9YgRRLtT6ZYk_Uc,Sushi Yoshino,"2150 Johnson Ferry Rd NE, Atlanta, GA 30319",Atlanta,30319,33.8923276,-84.3254968,3.5,107,4.3,254,0.6752290397,"Restaurants, Sushi Bars, Japanese, Food","restaurant, food",1
ZL2FFjbdOWad_QFUABxZ-w,ChIJubB3MAQH9YgRu2ChXxqRMoo,Ms. Iceys Kitchen & Bar,"1371 Clairmont Rd, Atlanta, GA 30033",Atlanta,30033,33.7928998,-84.3050245,4,552,4.2,1847,0.7611387284,"Nightlife, Caribbean, Southern, Bars, Cambodian, Restaurants","restaurant, food",1
GZXfT_c8Hx6rjTOWY4Veuw,ChIJm8uX1X8E9YgRf3fJsVUuSGY,Max's Coal Oven Pizzeria,"300 Marietta St NW, Atlanta, GA 30313",Atlanta,30313,33.7615744,-84.3964315,4,584,4.4,2889,0.7866649063,"Salad, Italian, Pizza, Restaurants","restaurant, food",1
NDvXI500LkmWjtOhk4MCZw,ChIJz_3PrTsF9YgR4nwTmdhoXsE,Lyla Lila,"693 Peachtree St NE UNIT 118, Atlanta, GA 30308",Atlanta,30308,33.7735708,-84.3846434,4.5,40,4.5,465,0.7865075121,"Restaurants, Italian","restaurant, food",1
B-YBhDXx3EzLEdkwX_D2wg,ChIJ5x4jgyAE9YgRUhpMrzRQ2NE,Fontaine's Oyster House,"1026 1/2 North Highland Avenue Northeast, Atlanta, GA 30306",Atlanta,30306,33.7826178,-84.3544907,3.5,463,4.5,1486,0.7361588502,"Live/Raw Food, Soup, Salad, Seafood, Nightlife, Restaurants, Dive Bars, Bars, Cocktail Bars, Sports Bars","bar, restaurant, food",1
ypBAmta3G0uf5cs9AkA-QQ,ChIJB7qS7NoJ9YgROejK6QzvTmA,Monterrey Mexican Restaurant,"5406 Buford Hwy NE, Doraville, GA 30340",Doraville,30340,33.8996671,-84.2789321,3.5,119,4.3,1348,0.6942029436,"Mexican, Restaurants, Seafood, Desserts, Food","restaurant, food",1
yPjQBv6iyqMjZFnmRZWEQw,ChIJESj_PZcO9YgRmRlw7YBrVHQ,Rumi's Kitchen,"6112 Roswell Rd, Atlanta, GA 30328",Atlanta,30328,33.9220428,-84.3796335,4,1313,4.5,3572,0.8114043364,"Restaurants, Nightlife, Cocktail Bars, Middle Eastern, Persian/Iranian, Bars","bar, restaurant, food",1
35JkXGQ7ZACp-IgOclvm2w,ChIJ0Q96m6wG9YgRzdr69_mJrok,Cinnaholic,"1230 Caroline St NE Ste B110, Atlanta, GA 30307, United States",Atlanta,30307,33.7586227,-84.3485381,4.5,353,4.6,1028,0.8381359035,"Food, Desserts, Vegan, Restaurants, Bakeries","bakery, food",1
mdxEmkJmtWlSoZorRlfFYg,ChIJB4FZZj4H9YgRySqQV5f5xfU,The S.O.S. Tiki Bar,"340 Church St, Decatur, GA 30030",Decatur,30030,33.7742578,-84.2950433,4,167,4.5,901,0.7652229831,"Tapas Bars, Hawaiian, Bars, Restaurants, Tiki Bars, Nightlife, Cocktail Bars, Caribbean","night_club, bar",1
ltvhQte3jY-zXIK33R7wCw,ChIJeUQ6r8EI9YgRAumjQqOEKkM,Newk's Eatery,"305 Brookhaven Ave Suite A1100, Atlanta, GA 30319",Atlanta,30319,33.8702483,-84.3355772,4,202,4.4,452,0.7509834731,"Restaurants, American (New), Pizza, Salad, Cafes, Sandwiches, American (Traditional)","restaurant, food",1
WkN8Z2Q8gbhjjkCt8cDVxg,ChIJr3-OMRsE9YgRNJTNacJKKqQ,TWO urban licks,"820 Ralph McGill Blvd NE, Atlanta, GA 30306",Atlanta,30306,33.7684531,-84.3612569,4,2730,4.7,9780,0.8532168679,"Bars, American (New), Nightlife, Southern, Restaurants","bar, restaurant, food",1
hVRp4DUtsc0qRFVJegT36Q,ChIJCRxTz6gG9YgR0sW8j1y3Ug8,Village Coffee House,"420 Seminole Ave NE, Atlanta, GA 30307",Atlanta,30307,33.7656529,-84.3493438,3.5,19,4.6,107,0.670170967,"Coffee & Tea, Food, Sandwiches, Restaurants, Ice Cream & Frozen Yogurt","cafe, restaurant, food",1
0FgSzXM_WT2XYVFx376x9A,ChIJJfbA1awG9YgRy-nJNOrQZNg,Starbucks,"1275 Caroline St NE, Atlanta, GA 30307",Atlanta,30307,33.7568076,-84.3462705,2.5,5,3,137,0.4381583202,"Coffee & Tea, Desserts, Restaurants, Food, Breakfast & Brunch","cafe, food",1
oHUyOUoStLzdteE1DyKNbA,ChIJy9zcpuAF9YgRxjdj1Zz5vvo,Glide Pizza,"659 Auburn Ave NE #506, Atlanta, GA 30312",Atlanta,30312,33.7568195,-84.3659856,4.5,52,4.7,412,0.8092259045,"Restaurants, Pizza","restaurant, food",1
-7LhyL0f41vAeyMC_J7DsA,ChIJtUV1VXwF9YgRpRcsib7qZnY,Cafe Lucia,"205 12th St NE R-1, Atlanta, GA 30309",Atlanta,30309,33.7841037,-84.3805742,4,54,4.1,374,0.6987946551,"Sandwiches, Cafes, Breakfast & Brunch, Restaurants","bar, restaurant, cafe, food",1
YIPzFF0CVgMCcly67VHgjw,ChIJHWdA3gME9YgRvh7M-K6z1-E,bartaco,"299 North Highland Avenue Northeast, Atlanta, GA 30307",Atlanta,30307,33.762519,-84.3586047,4,641,4.3,2067,0.7746205283,"Desserts, Restaurants, Mexican, Bars, Nightlife, Ice Cream & Frozen Yogurt, Food","restaurant, food",1
HAzfm4eZwWi6or8LyfZrsA,ChIJ4WPBvncE9YgRlmw3lhHFaQU,Harlem Nights Ultra Lounge,"201 Courtland St NE, Atlanta, GA 30303",Atlanta,30303,33.7598181,-84.3840599,2,52,3.6,134,0.4375851679,"Lounges, Nightlife, American (Traditional), Cajun/Creole, Restaurants, Bars, Dance Clubs","night_club, bar",1
tfGXKEGtiuo4YB3ocK-ywQ,ChIJQRlsgyAE9YgRnhgOPZsGZmA,Highland Tap,"1026 North Highland Avenue Northeast, Atlanta, GA 30306",Atlanta,30306,33.7825413,-84.3546336,3.5,302,4.5,1064,0.7260849653,"Nightlife, Restaurants, Bars, Steakhouses","bar, restaurant, food",1
i6BRPGEuE1EB7GtEhvoCxw,ChIJb2lkfesE9YgRYmWclkQ5ryI,Fellini's Pizza,"1991 Howell Mill Rd NW, Atlanta, GA 30318",Atlanta,30318,33.8092882,-84.4126341,4,345,4.5,2976,0.7888413134,"Restaurants, Pizza","restaurant, food",1
1-QvUjOk60CMnD6At26hQg,ChIJH-nyqukL9YgRRRgX37Fu6P4,Dunwoody Tavern,"5488 Chamblee Dunwoody Rd, Dunwoody, GA 30338",Dunwoody,30338,33.9476607,-84.3376211,3.5,113,4.2,606,0.6750949404,"Restaurants, Pubs, Nightlife, American (Traditional), British, Bars","restaurant, bar, food",1
pCPSQO3XD8rRehOMDkiSkQ,ChIJl3vmCvoD9YgRmeNZrUMdZlY,Sweet Cheats,"692 B Kirkwood Ave SE UNIT B1, Atlanta, GA 30316, United States",Atlanta,30316,33.7504231,-84.3643872,4,225,4.5,387,0.7610330263,"Food Delivery Services, Restaurants, Cafes, Desserts, Food","bakery, cafe, restaurant, food",1
ryECZmos2kvI1-pd5bi61g,ChIJ89DnD1oJ9YgR6c_b0BAU4t0,Fleming’s Prime Steakhouse & Wine Bar,"4501 Olde Perimeter Way, Atlanta, GA 30346",Atlanta,30346,33.9281295,-84.3431637,4,334,4.6,1358,0.790177448,"Seafood, Wine Bars, Bars, Restaurants, Steakhouses, Nightlife","bar, restaurant, food",1
6pGLh3TrOmQYk8RuZVe7YA,ChIJ_RkHPPgD9YgR-6pzvoBtxpM,Krog Street Market,"99 Krog St NE, Atlanta, GA 30307, United States",Atlanta,30307,33.756877,-84.3641688,4,466,4.6,9229,0.8152650777,"Shopping Centers, Food, Flowers & Gifts, Restaurants, Specialty Food, Shopping",food,1
5U6cJoa1wUp4dtAknFJv5w,ChIJKyxJulIH9YgRlHqFMpAVcDk,D92 Korean BBQ,"225 E Trinity Pl, Decatur, GA 30030",Decatur,30030,33.7719658,-84.293782,4,359,4.5,1764,0.784013286,"Korean, Restaurants, Barbeque, Nightlife, Bars","bar, restaurant, food",1
DdKSR1IdTjvikmsp89QoEw,ChIJG_St3gME9YgRj_R9bXFmNyM,Fritti,"309 North Highland Avenue Northeast, Atlanta, GA 30307",Atlanta,30307,33.7629393,-84.3577256,4,654,4.5,1143,0.7887674105,"Pizza, Italian, Food, Beer, Wine & Spirits, Restaurants","restaurant, food",1
cFalfbfc6E2m2ssN9keZbQ,ChIJiVsxJZQP9YgRE-VjnMQ3wxY,Cupanion's Kitchen + Coffee,"4920 Roswell Rd Ste. 14, Atlanta, GA 30342",Atlanta,30342,33.8892342,-84.3832424,4.5,176,4.8,278,0.8338153777,"American (New), Food, Restaurants, Breakfast & Brunch, Coffee & Tea","cafe, restaurant, food",1
3YkIz1QAYI1GpE_2jCA0ow,ChIJnZkqctMH9YgR4U8zh3XPRF0,Therapy Lounge,"3145 Briarcliff Rd NE, Atlanta, GA 30329",Atlanta,30329,33.8372914,-84.3097777,3.5,104,4.3,349,0.6780894991,"Bars, Hookah Bars, American (Traditional), Nightlife, Restaurants, Cafes, Internet Cafes, Cocktail Bars, Coffee & Tea, Beer, Wine & Spirits, Lounges, Food","night_club, cafe, bar, restaurant, food",1
Ma_eP7RX1vWAhmjZTY7zyw,ChIJTcg2zpEF9YgRaLioz5lu5ZY,Starbucks,"2900 Peachtree St NE, Atlanta, GA 30305",Atlanta,30305,33.8354116,-84.3827434,3,38,4.1,201,0.5870307726,"Restaurants, Cafes, Coffee & Tea, Food","cafe, restaurant, food",1
3o_B9uvzk36_XRLJYXzVZg,ChIJnf1C8_0D9YgRFc8jjr0hr5g,ParkGrounds,"142 Flat Shoals Ave SE, Atlanta, GA 30316",Atlanta,30316,33.7500688,-84.3546187,4,275,4.5,712,0.7704625111,"Desserts, Active Life, Coffee & Tea, Parks, Restaurants, Ice Cream & Frozen Yogurt, Food, Dog Parks, Sandwiches, Breakfast & Brunch, Pets","cafe, bar, restaurant, food",1
PyKEV32KkPMKIYFDRWJhMw,ChIJg4Bzkh4F9YgRy-g3jMxqYOY,Chick-fil-A,"1942 Howell Mill Rd NW, Atlanta, GA 30318",Atlanta,30318,33.8076542,-84.4130693,3.5,67,4.4,1531,0.6967319718,"Restaurants, Event Planning & Services, Fast Food, Caterers","restaurant, food",1
KWv9pp8Jo6O2GkfFb9OLlg,ChIJKX3oFT4H9YgRXhV5sQXbeY8,LEON's Full Service,"131 E Ponce de Leon Ave, Decatur, GA 30030",Decatur,30030,33.7755045,-84.2951389,4,979,4.5,1860,0.800072203,"Restaurants, Nightlife, American (Traditional), Cocktail Bars, Gastropubs, Bars","bar, restaurant, food",1
EyhxcURhLJygFVZXf_gy7A,ChIJm0FKKV6n9YgRqE3Dg3fRiaE,McDonald's,"5774 Buford Hwy, Doraville, GA 30340",Doraville,30340,33.9090009,-84.267365,2.5,23,3.5,1798,0.49227746,"Burgers, Fast Food, American (Traditional), Restaurants, Pizza, Food, Coffee & Tea","cafe, restaurant, food",1
npYuT3eVW7eRDo_Rj0df_A,ChIJHRJcb3EP9YgRs5K0gha5HC0,Thos. O'Reilly's Public House,"227 Sandy Springs Pl NE Suite 416, Sandy Springs, GA 30328",Sandy Springs,30328,33.9207282,-84.383299,5,5,4.4,288,0.8435486393,"Diners, Restaurants, Steakhouses, Nightlife, Bars, Irish Pub","bar, restaurant, food",1
iP8UrvwgNTXLK5l4Gk-wBg,ChIJH3uX8oYD9YgRV0HUM3lOpls,Mr. Hibachi,"31 Edgewood Ave NE, Atlanta, GA 30303",Atlanta,30303,33.7543625,-84.388228,3.5,26,3.7,193,0.5909158297,"Chinese, Japanese, Asian Fusion, Restaurants","restaurant, food",1
9tC6Q9lcTbjd-2fNySNbDw,ChIJucdxco4F9YgR_EKa1gppziE,The Southern Gentleman,"3035 Peachtree Rd NE A208, Atlanta, GA 30305",Atlanta,30305,33.8378561,-84.3805087,3.5,653,4.7,3110,0.7691585526,"Cocktail Bars, Gastropubs, Nightlife, Bars, Southern, American (New), Restaurants","bar, restaurant, food",1
U-i6cq-yFRVJC4pIKSLX9Q,ChIJwWNQxHEE9YgRCjuVoqKbVhU,Poor Calvin's,"510 Piedmont Ave NE, Atlanta, GA 30308",Atlanta,30308,33.7685497,-84.3822003,4.5,3379,4.5,3598,0.8761101479,"Southern, Nightlife, Thai, Food, American (New), Ethnic Food, Restaurants, Beer, Wine & Spirits, Asian Fusion, Bars, Comfort Food, Specialty Food, Seafood","restaurant, food",1
Cb16m1sj-jaUiSecF71lcw,ChIJ86lMh3gE9YgRvWSu8JlB6kk,The Palm - Atlanta,"3391 Peachtree Rd NE, Atlanta, GA 30326",Atlanta,30326,33.848543,-84.365372,3.5,195,4.2,830,0.6867565218,"Restaurants, Steakhouses, Seafood","restaurant, food",1
UW1NFjJ8S4W0uCy8M6Vpog,ChIJKZ74rM4J9YgRERvodcwUnWc,Mamak,"5150 Buford Hwy NE A-170, Doraville, GA 30340",Doraville,30340,33.8935141,-84.2848,4,590,4.5,1183,0.7875330277,"Food, Malaysian, Restaurants, Street Vendors, Chinese","restaurant, food",1
DRL1GpT6lsgmGEVVwn1Vkg,ChIJM1hLzg4E9YgRicMhtt2qI5k,a mano,"587 Ralph McGill Blvd NE, Atlanta, GA 30312",Atlanta,30312,33.7638344,-84.3679659,4.5,216,4.8,1132,0.8515598352,"Breakfast & Brunch, Italian, Wine Bars, Pop-Up Restaurants, Sandwiches, Nightlife, Restaurants, Bars, Cocktail Bars","bar, restaurant, food",1
DbRdAv-pErGlWgfRxUWbmg,ChIJrR8E0ZMO9YgRNcHyO7_3lKU,J. Christopher's,"227 Sandy Springs Pl NE, Sandy Springs, GA 30328",Sandy Springs,30328,33.9211524,-84.3816951,3.5,77,4.3,404,0.6750059789,"Breakfast & Brunch, Restaurants","restaurant, food",1
zKwbBLDW3S9BBByXz5dE9Q,ChIJw6monz4H9YgReSdEgV9uKlQ,Grindhouse Killer Burgers,"433 N McDonough St, Decatur, GA 30030",Decatur,30030,33.7725258,-84.2962615,4,266,4.5,2910,0.7845943281,"Burgers, Sports Bars, Restaurants, Nightlife, Bars","bar, restaurant, food",1
S6VL9dwNzOZqJ8PDbP_cyA,ChIJLR8l8YIG9YgR0yzHNBwqWoI,The Family Dog,"1402 North Highland Avenue Northeast, Atlanta, GA 30306",Atlanta,30306,33.7925986,-84.3524467,3,188,4.3,391,0.6383712496,"Arts & Entertainment, American (Traditional), Performing Arts, Restaurants, Gastropubs, Bars, Nightlife","bar, restaurant, food",1
jL4CO28E2JekI8Zr480GlA,ChIJw3XmvWgE9YgRS7vXGkzlkTk,Einstein Bros. Bagels,"800 Peachtree St NE, Atlanta, GA 30308",Atlanta,30308,33.7767418,-84.3847445,2.5,84,3.9,517,0.5388987077,"Restaurants, Coffee & Tea, Cafes, Bagels, Food","cafe, restaurant, bakery, food",1
a8aq5ODPWfDiblqV1DF4Hw,ChIJySYrPo8F9YgRtrO_KYNpbRE,China Dragon,"798 Ponce De Leon Ave NE, Atlanta, GA 30306",Atlanta,30306,33.7741519,-84.3611415,3,106,3.9,22,0.5600397327,"Chinese, Restaurants","restaurant, food",1
PVjEQAJFQOL5G1YtxqzJXg,ChIJ58ezDM8H9YgRDz8u0dFX384,Bad Daddy's Burger Bar,"1575 Church St #240, Decatur, GA 30030",Decatur,30030,33.7937537,-84.2835501,4,233,4.3,2403,0.7605592347,"Restaurants, Burgers, Bars, Salad, Nightlife","bar, restaurant, food",1
uHFS-2P2tadBAZ6pvXPvKA,ChIJ3Uui9x0P9YgR1amW5BRDJ5g,Cigar City Club,"5006 Roswell Rd, Sandy Springs, GA 30342",Sandy Springs,30342,33.891428,-84.3816141,4,128,4.3,1368,0.7454760481,"Tobacco Shops, Hookah Bars, Nightlife, Bars, Steakhouses, Tapas Bars, American (Traditional), Restaurants, Lounges, Cocktail Bars, Shopping","night_club, parking, bar, restaurant, food",1
8ltgNjXYNMjOKkRjJf4mvA,ChIJgVTbeLMP9YgRcKAXbvWORs0,Kula Coffee Co,"3423 Piedmont Rd NE, Atlanta, GA 30305",Atlanta,30305,33.8484613,-84.3735981,4.5,7,4.8,88,0.7739677243,"Cafes, Food, Coffee & Tea, Restaurants, Breakfast & Brunch","cafe, food",1
X7vgSJUfaGyoa_H38ZG-yw,ChIJZVjDb3gE9YgR2L1csXDrgeM,Meehan's Public House Downtown,"200 Peachtree St, Atlanta, GA 30303",Atlanta,30303,33.759204,-84.3877686,3.5,430,4.3,1681,0.7162992252,"Bars, Irish, Pubs, Restaurants, Irish Pub, Burgers, Nightlife, Sandwiches, Breakfast & Brunch","bar, restaurant, food",1
GY1rvd33ciR1Nn4LRDFkXw,ChIJI5mpUjoE9YgRS--3ea1Drrs,Red Light Cafe,"553-1 Amsterdam Ave NE, Atlanta, GA 30306, United States",Atlanta,30306,33.7879895,-84.3688065,3,53,4.5,311,0.6365957882,"Delis, Music Venues, Restaurants, Cafes, Beer, Wine & Spirits, Jazz & Blues, Nightlife, Food, American (Traditional), Arts & Entertainment",bar,1
1q3u0GmFKRKPV_ikCiCbUw,ChIJv7pmK-ID9YgRcrZZUrFw728,Gunshow,"924 Garrett St, Atlanta, GA 30316",Atlanta,30316,33.740686,-84.358047,4.5,1195,4.6,1095,0.8576448057,"Tapas/Small Plates, Restaurants, Southern, American (New), Bars, Nightlife","bar, restaurant, food",1
ijDd-gyIFdGufmTfoNQ2CQ,ChIJMwBaBT4H9YgRtUF8R34R0w8,Parker's on Ponce,"116 E Ponce de Leon Ave, Decatur, GA 30030",Decatur,30030,33.7758,-84.295875,4,358,4.5,1119,0.779235288,"Event Planning & Services, Venues & Event Spaces, Steakhouses, Seafood, Restaurants, Bars, Piano Bars, American (New), Nightlife","bar, restaurant, food",1
SjrWj9ZzDEmnAFwUD-ekMA,ChIJLXi9HYKn9YgRVI9vvtfWeDk,Emerald City Bagels,"1257A Glenwood Ave SE, Atlanta, GA 30316",Atlanta,30316,33.739961,-84.346463,4,198,4.3,930,0.7481746828,"Bagels, Food, Sandwiches, Breakfast & Brunch, Coffee & Tea, Restaurants","bakery, restaurant, food",1
q1ZCKYLNZH0nH3-8aFq4Dw,ChIJVb2G_VcF9YgR5HUpls9Eiz4,Starbucks,"1228 W Paces Ferry Rd NW, Atlanta, GA 30327",Atlanta,30327,33.8491893,-84.4279979,3.5,33,4.2,403,0.6521222056,"Food, Coffee & Tea, Wine Bars, Tapas Bars, Bars, Nightlife, Restaurants","cafe, restaurant, food",1
Y-MZSZTIhW7Ee6rSKpfseg,ChIJwxiI1nkE9YgRfVOiHqhabH4,Sear,"265 Peachtree Center Ave NE, Atlanta, GA 30303",Atlanta,30303,33.76158,-84.3851,3,176,4,271,0.6035508499,"Food, Nightlife, Steakhouses, American (New), Diners, Breakfast & Brunch, Bars, Seafood, Restaurants, Wine Bars, Beer, Wine & Spirits","restaurant, food",1
LoMpMSfzVd1g-5szne8V3w,ChIJDw45JNcG9YgRhmnAKVQ8sbQ,Sun in My Belly,"2161 College Ave NE, Atlanta, GA 30317",Atlanta,30317,33.764022,-84.316504,4,1139,4.4,2302,0.7946324948,"Restaurants, Event Planning & Services, Food, Breakfast & Brunch, Desserts, American (New), Bagels, Southern, Caterers, Bars, Coffee & Tea, Nightlife, Cafes, Wine Bars","restaurant, food",1
kmdfM4WeL7Rq0x21na7O-A,ChIJxwKayusF9YgRPTj04YCCT44,Catch 12,"400 W Peachtree St NW #12, Atlanta, GA 30308",Atlanta,30308,33.7654632,-84.3877429,3.5,163,3.3,101,0.572158673,"Bars, Restaurants, Nightlife, Food, Sushi Bars, Beer, Wine & Spirits, Steakhouses","restaurant, food",1
5s5_DbP2EKJtn2SQ-moZNg,ChIJG7bYTuUJ9YgRUv19os1UNGA,Arnette's Chop Shop,"2700 Apple Valley Rd NE Suite 55, Brookhaven, GA 30319",Brookhaven,30319,33.8652758,-84.3358484,4,120,4.6,801,0.7689178855,"Steakhouses, Restaurants","restaurant, food",1
R9bOeoyB6t_WBhXkC542MA,ChIJh5fmRAEE9YgReH33Gg70kP0,Char Korean Bar & Grill,"299 North Highland Avenue Northeast, Atlanta, GA 30307",Atlanta,30307,33.7621675,-84.3591334,3.5,399,4.1,875,0.6883518359,"Bars, Nightlife, Korean, Restaurants, American (Traditional), Asian Fusion, Barbeque","restaurant, food",1
WC_QSlatxJmEa7a6ME7f1g,ChIJv_wEKEkJ9YgROn-3obm2qOs,Yokohama Sushi,"5412-B, Buford Hwy NE, Doraville, GA 30340",Doraville,30340,33.9000066,-84.2785143,4.5,148,4.7,537,0.8279848087,"Sushi Bars, Restaurants, Japanese","restaurant, food",1
zOAzEnYMrC_9pUEU3-rbSw,ChIJkaM876wG9YgRPD8qvNvANlk,Five Guys,"1253 Caroline St NE, Atlanta, GA 30310",Atlanta,30310,33.7582208,-84.3472616,3.5,158,4.3,1325,0.698381621,"Fast Food, Restaurants, Burgers, Hot Dogs, American (New)","meal_takeaway, restaurant, food",1
av2wmKPV47Oh1Nw__p86MA,ChIJ52hvej4H9YgRIjL3nmtkAjs,Siam Thai Restaurant,"123 Sycamore St, Decatur, GA 30030",Decatur,30030,33.774456,-84.2958758,3.5,186,4.3,545,0.6916561059,"Thai, Restaurants","restaurant, food",1
RSEoAWkXCv5Vi_nv9LnNyg,ChIJa9H0IQ8P9YgRrxH5ILNtbGo,The Select,"6405 Blue Stone Rd Suite 200, Sandy Springs, GA 30328",Sandy Springs,30328,33.925001,-84.3811918,4.5,110,4.6,1984,0.8270168111,"Restaurants, French, Mediterranean, American (New), Bars, Nightlife, Cocktail Bars","restaurant, food",1
4IgV6mkHqPvXPV9B7x3JBw,ChIJbR6zaGcE9YgRtVFZTItaOGo,Tropical Smoothie Cafe,"930 Spring St NW #001, Atlanta, GA 30309",Atlanta,30309,33.77994,-84.389177,3.5,40,3.3,329,0.5629149221,"Juice Bars & Smoothies, Food, Specialty Food, Sandwiches, Cafes, Fruits & Veggies, Restaurants","cafe, restaurant, food",1
l9udhFSqWgyeU1i8xGy_Aw,ChIJDesFeFsB9YgRwTS98Pt3F-g,Gaja Korean Bar,"491 Flat Shoals Ave SE A, Atlanta, GA 30316",Atlanta,30316,33.7405484,-84.3463317,4,223,4.4,956,0.7602939579,"Korean, Restaurants, Noodles, Bars, Nightlife","bar, restaurant, food",1
7895YHS5qGu03R-C6aYg9g,ChIJr9PpEZME9YgRYg1YifCbOw8,The Optimist,"914 Howell Mill Rd, Atlanta, GA 30318",Atlanta,30318,33.7798135,-84.4104515,4,1682,4.6,3526,0.8251020341,"Music Venues, Nightlife, Restaurants, Seafood, Arts & Entertainment, Bars, Cocktail Bars","bar, restaurant, food",1
iNpKyGdjCb40PECLpyF-rg,ChIJU_XZ8QIF9YgRDECdtrHYoTQ,Tuza Taco,"1523 Howell Mill Rd NW, Atlanta, GA 30318",Atlanta,30318,33.7967808,-84.4157264,4.5,183,4.7,734,0.8345002039,"Mexican, Tacos, Restaurants","restaurant, food",1
IRXIr05Nms6WnuwE3QgNdQ,ChIJe15GecwJ9YgREFlO68VvzqI,Wingstop,"5065 Buford Hwy NE, Doraville, GA 30340",Doraville,30340,33.8898107,-84.2852095,2.5,61,3.6,487,0.5033918049,"Food, Restaurants, Chicken Wings","restaurant, food",1
yyakxBb3bLHcnIxHUKJNgw,ChIJgdpxu1gG9YgRMQTfx8ArOMA,The General Muir,"1540 Avenue Pl B-230, Atlanta, GA 30329",Atlanta,30329,33.8011787,-84.3272123,4,1057,4.5,1925,0.8016155065,"Restaurants, American (Traditional), Breakfast & Brunch, Delis","restaurant, food",1
FnP7PHAJfO0VUCmiPvP8yA,ChIJk_fMf1kF9YgRKs7QZ1sbhd4,Dos Bocas,"275 Baker St NW, Atlanta, GA 30313",Atlanta,30313,33.7619887,-84.3953027,3.5,38,4,720,0.6402767937,"Cajun/Creole, Salad, Restaurants, Seafood, Tex-Mex, Mexican","restaurant, food",1
57UOLFG1dRniuge8gsVh-A,ChIJmVXgMpQO9YgRxs3_t4Ubssw,Clay's Sports Cafe,"5975 Roswell Rd D- 245, Atlanta, GA 30328",Atlanta,30328,33.9179936,-84.3770943,4,138,4.6,810,0.7711815887,"Nightlife, Chicken Wings, Dive Bars, Bars, Restaurants, Cafes, Sports Bars","cafe, restaurant, food",1
ApwmEiStq9aP9-Tf2xfVtA,ChIJKXUwR3gE9YgR5AB9vWp1psg,Gus’s World Famous Fried Chicken,"The Mall at, 231 Peachtree St Suite A-05, Atlanta, GA 30303",Atlanta,30303,33.7599974,-84.3862075,4,1322,4.2,3021,0.779766417,"Comfort Food, Chicken Shop, Soul Food, Southern, Restaurants","restaurant, food",1
JfgsCMKJOCMg1O2iK4ObWA,ChIJM0SeVjH99IgR5L6TJxc6jYQ,Sweet Georgia's Juke Joint,"200 Peachtree St L05, Atlanta, GA 30303",Atlanta,30303,33.7586849,-84.3877364,3.5,1260,4,3189,0.7095864101,"Nightlife, Restaurants, Music Venues, Venues & Event Spaces, Arts & Entertainment, Event Planning & Services, Southern","restaurant, food",1
gc_wMNtQcGv-VpFd86SYNQ,ChIJCQfrG2EG9YgRx-D4eXfQ0wA,Pizza Bella,"1799 Briarcliff Rd NE, Atlanta, GA 30306",Atlanta,30306,33.8041758,-84.3371383,4,157,4.4,291,0.7425310856,"Event Planning & Services, Italian, Sandwiches, Salad, Caterers, Food Delivery Services, Food, Chicken Wings, Restaurants, Pizza","restaurant, food",1
w0vmLFtzx8IKxmbNEZjJbg,ChIJrV-gm6wG9YgRjHcsQb-ZRlw,Willy's Mexicana Grill,"1230 Caroline St NE, Atlanta, GA 30307",Atlanta,30307,33.7586259,-84.3486678,4,117,4.6,1549,0.7753886117,"Fast Food, Restaurants, Mexican","restaurant, food",1
uvNNAk7MjanKc0EftiYl9Q,ChIJiV2NCIwF9YgRL3h9xG1PlOQ,Sauce Buckhead,"25 Irby Ave NW, Atlanta, GA 30305",Atlanta,30305,33.8413887,-84.3797908,4,13,4.2,313,0.6857585426,"Italian, Restaurants, Pizza, Nightlife, Bars, Cocktail Bars","restaurant, night_club, bar, food",1
5KlqaKayvGXmD2aJU9YfRA,ChIJlcEZX6AG9YgRXcOpFIu5byE,Marco's Pizza,"798 North Highland Avenue Northeast Suite B, Atlanta, GA 30306",Atlanta,30306,33.776234,-84.3526089,2.5,26,3.6,176,0.4799610992,"Food, Food Delivery Services, Restaurants, Gluten-Free, Chicken Wings, Pizza, Italian","meal_delivery, meal_takeaway, restaurant, food",1
RSkX695XV8DwOoV7qL6oMg,ChIJVThwzxMF9YgR6DCmUPc8lTg,Salata,"650 Ponce De Leon Ave NE #680A, Atlanta, GA 30308",Atlanta,30308,33.773923,-84.3657935,4,29,4.2,186,0.692164768,"Wraps, Restaurants, Soup, Salad","meal_takeaway, restaurant, food",1
uai8RuXxeg5ROftKfsnH9Q,ChIJd1yZdewE9YgReD9t-jO662U,Ormsby's,"1170 Howell Mill Rd Ste P20, Atlanta, GA 30318",Atlanta,30318,33.7859263,-84.4119319,3.5,698,4.4,1724,0.734049735,"Nightlife, Whiskey Bars, Sandwiches, Food, Bars, Restaurants, American (Traditional), Sports Bars, Beer, Wine & Spirits, Beer Bar, Pubs","bar, restaurant, food",1
aW-gJA1nHHhZkaKTMpws-g,ChIJ0Spv9csJ9YgRAOscOVG7FC0,Spicy Gaga Duck（鸭货联盟）,"5090 Buford Hwy NE #109, Doraville, GA 30340",Doraville,30340,33.891634,-84.2858611,4,11,4.6,34,0.7005304003,"Restaurants, Chinese, Asian Fusion","restaurant, food",1
9XJVqq0xSJWv-ihXEIiL_w,ChIJoXe78d4J9YgRxbh9u0IqCK4,Buford Highway Farmers Market,"5600 Buford Hwy NE, Doraville, GA 30340, United States",Doraville,30340,33.9056701,-84.2738342,4.5,681,4.6,10121,0.8720896876,"Specialty Food, Cafeteria, Meat Shops, Food, Fruits & Veggies, Restaurants, Ethnic Food, Seafood Markets, Grocery, Farmers Market","grocery_or_supermarket, supermarket, food",1
2uiFavCGvjlqDSkl1cIZPw,ChIJE1BGlM8J9YgR6ND5Uwb5Y0A,El Rey Del Taco,"5288 Buford Hwy, Doraville, GA 30340",Doraville,30340,33.8970322,-84.2818654,4,844,4.4,4582,0.7971594187,"Breakfast & Brunch, Mexican, Latin American, Restaurants","restaurant, food",1
pW18p3XZrinTIDONZiBoig,ChIJo3tNG10E9YgReN2SLG5sqNs,Eleventh Street Pub,"1041 W Peachtree St NW, Atlanta, GA 30309",Atlanta,30309,33.7831381,-84.3877093,3.5,103,4.5,793,0.7064690782,"Beer, Wine & Spirits, Restaurants, American (Traditional), Food, Bars, Nightlife, Pubs","bar, restaurant, food",1
w2eWMiUASUzmKtJzJHxxnA,ChIJ9RlO8p0I9YgRIwauCeNsupk,El Potro Mexican Restaurant,"3396 Buford Hwy NE, Atlanta, GA 30329",Atlanta,30329,33.84529,-84.326791,4,228,4.3,1260,0.753507615,"Mexican, Restaurants","restaurant, food",1
rMQPC0UGceG3gmG8iv1POA,ChIJ6ZJj9JgP9YgRtsQgSFnmd3M,Casi Cielo,"6125 Roswell Rd STE 200, Atlanta, GA 30328",Atlanta,30328,33.9223516,-84.3789285,4.5,209,4.7,1388,0.8431728567,"Mexican, Cocktail Bars, Bars, Restaurants, Nightlife, Tapas/Small Plates","restaurant, food",1
flrsv0dum7T68jy7QSDRKw,ChIJ91usCuwE9YgRP6FYPUrfhb0,Marcel,"1170 Howell Mill Rd, Atlanta, GA 30318",Atlanta,30318,33.7857453,-84.4125409,4.5,591,4.6,1530,0.8502349403,"Steakhouses, Restaurants","restaurant, food",1
X795k7uPMe2WzemJ0gFGLA,ChIJ7Yt8V8AI9YgRnOw0zpJ6kJo,Moe's Southwest Grill,"205 Town Blvd, Brookhaven, GA 30319",Brookhaven,30319,33.8695241,-84.3355697,2.5,24,3.8,352,0.5059559069,"Restaurants, Tex-Mex, Mexican","restaurant, food",1
VjsSTGbaaXhZZd99ypBtKg,ChIJGcmZb5YI9YgR12viPfFfgto,Kaleidoscope Bistro & Pub,"1410 Dresden Dr #100, Atlanta, GA 30319",Atlanta,30319,33.8608776,-84.3318685,3.5,421,4.3,1041,0.710987466,"Bars, American (Traditional), Restaurants, Asian Fusion, Gastropubs, Pubs, Nightlife","bar, restaurant, food",1
sOCzxcEo5v1yT-OzBriekA,ChIJ01dhwo4F9YgRyv35vhu5k10,Chops & Lobster Bar,"70 W Paces Ferry Rd NW, Atlanta, GA 30305",Atlanta,30305,33.8398303,-84.3818438,4,758,4.6,2996,0.8110755503,"Steakhouses, Seafood, Restaurants","bar, restaurant, food",1
kaM6vh1hRpL_qh9zFodGTw,ChIJc-CccrIJ9YgR4c-3UTQjsyU,Southbound,"5394 Peachtree Rd, Chamblee, GA 30341",Chamblee,30341,33.8922898,-84.301018,4,694,4.5,1034,0.7886429178,"Southern, Bars, American (New), Nightlife, Restaurants, Breakfast & Brunch","bar, restaurant, food",1
R7Lk611uKgtxD3b72FU0-g,ChIJg0yrd6MF9YgRmUCviZQHWAE,Whitehall Tavern,"2391 Peachtree Rd, Atlanta, GA 30305",Atlanta,30305,33.8201679,-84.3876569,3.5,148,4.5,1418,0.7180814216,"Nightlife, Burgers, Restaurants, American (Traditional), American (New), Bars","bar, restaurant, food",1
RIiphmnqXCUL86SKj-uZ-A,ChIJ1calRKAG9YgRmFTh25P3n9Y,Blind Willie's,"828 North Highland Avenue Northeast, Atlanta, GA 30306, United States",Atlanta,30306,33.7771237,-84.3526327,4.5,95,4.7,554,0.8215014486,"Arts & Entertainment, Cajun/Creole, Restaurants, Nightlife, Bars, Jazz & Blues","night_club, bar, restaurant, food",1
aRef6qQhYKFE31v_PyacIw,ChIJ13o5s54O9YgRqwCRTNy0-28,LongHorn Steakhouse,"6390 Roswell Rd, Sandy Springs, GA 30328",Sandy Springs,30328,33.929635,-84.379611,3,103,4.1,1576,0.6236127221,"Restaurants, American (Traditional), Barbeque, Steakhouses","meal_takeaway, bar, restaurant, food",1
4O40kSZ88YkBDJ23Tzc2aw,ChIJWQDTAOwE9YgRVkGvK0XATHo,Taqueria Del Sol,"1200-B, 1200-B Howell Mill Rd NW, Atlanta, GA 30318",Atlanta,30318,33.7873211,-84.4129579,3.5,593,4.5,1023,0.7361000163,"Restaurants, Tex-Mex","restaurant, food",1
irgOOugE8qnt2EzCKjh5Jg,ChIJ85aoipQO9YgRiLpv91DhDB4,il Giallo Osteria & Bar,"5920 Roswell Rd B-118, Sandy Springs, GA 30328",Sandy Springs,30328,33.9160713,-84.3807647,4.5,317,4.6,755,0.8332656236,"Nightlife, Bars, Restaurants, Italian, Desserts, Food, Seafood","restaurant, food",1
meK8wZSIRoNHr8JnmckJVg,ChIJazu_XqAG9YgRq7MSF_xtIvs,Surin of Thailand,"810 North Highland Avenue Northeast, Atlanta, GA 30306",Atlanta,30306,33.7765778,-84.352685,3.5,416,4.3,965,0.7100144755,"Thai, Asian Fusion, Restaurants","bar, restaurant, food",1
ZtHoM3IYOiK4k81OmDTiHA,ChIJB4yG6XkE9YgRTkNoItSMCOY,Caribou Coffee,"303 Peachtree Center Ave NE Suite BL-7, Atlanta, GA 30308",Atlanta,30308,33.7626124,-84.3850636,4,24,4.3,55,0.6867889674,"Sandwiches, Juice Bars & Smoothies, Restaurants, Coffee & Tea, Food","cafe, restaurant, food",1
cgONshBaun3xCVyrT_bSIw,ChIJBcSq7y0H9YgRxF8GJY5FtdE,Roc South Cuisine,"3009 Buford Hwy NE, Brookhaven, GA 30329",Brookhaven,30329,33.8354335,-84.3376795,4.5,230,4.4,1186,0.8130126841,"Breakfast & Brunch, Restaurants, American (New), Bars, Nightlife, Seafood, Southern","restaurant, food",1
Tj9YUbJxZ_-jDpPaZEACig,ChIJN2gWDlQd9YgRvmS1cd7eaz8,Chic-A-Loes,"2879 E Point St # 12, Atlanta, GA 30344",Atlanta,30344,33.6768136,-84.4431218,3.5,41,4.3,778,0.672229844,"Restaurants, Chicken Wings, American (Traditional)","restaurant, food",1
#NAME?,ChIJScEv8xAG9YgRCpBiH2IeWDw,Havana Sandwich Shop,"2905 Buford Hwy NE, Atlanta, GA 30329",Atlanta,30329,33.8328669,-84.3406377,4,445,4.6,1699,0.7969398007,"Restaurants, Sandwiches, Food, Cuban, Coffee & Tea","restaurant, food",1
kyIE80-EaCS-GrX1m0Vxhg,ChIJKZhb-poO9YgRx4TFtGGzKsE,Zafron Restaurant,"236 Johnson Ferry Rd, Sandy Springs, GA 30328",Sandy Springs,30328,33.9256907,-84.3800509,4,185,4.3,763,0.7450704702,"Breakfast & Brunch, Persian/Iranian, Mediterranean, Middle Eastern, Restaurants","restaurant, food",1
OhNloYqWA4f0ysYCDQa51A,ChIJdeGTkewD9YgRhH1hbJBzARY,Dakota Blue,"454 Cherokee Ave SE, Atlanta, GA 30312",Atlanta,30312,33.7420571,-84.3733065,4,215,4.4,664,0.7559412091,"Restaurants, Mexican, American (Traditional), Vegetarian, Tex-Mex, Breakfast & Brunch","restaurant, food",1
vFulipMlcFyN60_SyAhjyA,ChIJ2Zs9h4AE9YgRfTz0ClCkG9k,Twin Smokers BBQ,"300 Marietta St NW suite 104, Atlanta, GA 30313",Atlanta,30313,33.7617544,-84.3965576,4,915,4.3,1660,0.7778427847,"Barbeque, Restaurants","bar, restaurant, food",1
SQI0jNpy61rYH16-9V0FLA,ChIJIUrrGocD9YgRmN-JSb2xRqw,Landmark Diner - Downtown,"60 Luckie St NW, Atlanta, GA 30303",Atlanta,30303,33.7566936,-84.3890826,2.5,257,3.7,2126,0.5507967087,"Breakfast & Brunch, American (Traditional), Restaurants, Diners","restaurant, food",1
TJPRsKH-YbeS00Ms2dHwOw,ChIJN3bFyqsF9YgReu6wcQEXgA8,Black Bear Tavern,"1931 Peachtree St NE, Atlanta, GA 30309",Atlanta,30309,33.8075037,-84.3935332,4,140,4.4,549,0.7473598935,"American (Traditional), Nightlife, Bars, Pubs, Sports Bars, Restaurants","bar, restaurant, food",1
kT24NXLM8NF8iqY9UGZmgw,ChIJPxIN_pYO9YgR5VE2ZPZqc2Y,Yuka Sushi Bar,"6125 Roswell Rd Ste 900, Sandy Springs, GA 30328",Sandy Springs,30328,33.9217375,-84.3788209,4,29,4.3,417,0.7105386901,"Sushi Bars, Restaurants","bar, restaurant, food",1
GrveNd9VL1wigDyRdt5VMw,ChIJCVpcTs8O9YgRxdnuFq9C8wA,Taziki's Mediterranean Cafe - Sandy Springs,"5610 Glenridge Dr, Sandy Springs, GA 30342",Sandy Springs,30342,33.908276,-84.363174,4,138,4.4,723,0.7500002401,"Mediterranean, Restaurants","restaurant, food",1
iqK1C-4jHII1OFmLBQSbDg,ChIJa_xUc28E9YgRU4Sj8KQbnUw,Livingston Restaurant + Bar,"659 Peachtree St NE, Atlanta, GA 30308",Atlanta,30308,33.7724239,-84.3847336,3.5,244,3.8,206,0.6357422581,"Breakfast & Brunch, Salad, Restaurants, American (Traditional)","restaurant, bar, food",1
zzin1d1oHi81GuI0ufo1VA,ChIJGaXtwTsG9YgRNJEXQF8Yoig,Cafe Bombay,"2615 Briarcliff Rd NE, Atlanta, GA 30329",Atlanta,30329,33.8284201,-84.3270171,3.5,638,4.1,1910,0.7037260344,"Restaurants, Pakistani, Indian","cafe, restaurant, food",1
zzlkjDG9Rv8Jn-vSolMgyw,ChIJ3xuS7YAD9YgRZLEvnHJ9Rdo,Glenn's Kitchen,"110 Marietta St NW, Atlanta, GA 30303",Atlanta,30303,33.7570124,-84.3929132,3.5,118,4.3,317,0.6790294873,"Comfort Food, Southern, Restaurants, American (New)","restaurant, food",1
mUivcVdKHl0UaIfdKrYsWA,ChIJm4dx-x8F9YgRCbV4sEx73Vk,Pancake Social,"675 Ponce De Leon Ave NE, Atlanta, GA 30308",Atlanta,30308,33.7716397,-84.3652525,3,209,3.8,882,0.5984567536,"Breakfast & Brunch, Restaurants, Pancakes","restaurant, food",1
B1utosVn_70fiRUxJQRKgA,ChIJPZ3Ccj4H9YgRhEhOs_bEIck,The White Bull,"123 E Court Square, Decatur, GA 30030",Decatur,30030,33.7750533,-84.2958056,4.5,200,4.5,630,0.8142803362,"American (New), Italian, Nightlife, Bars, Cocktail Bars, Restaurants","restaurant, food",1
wuba10gZw-FUp7iWFQzdqA,ChIJSd4kc3gE9YgRq6HkvZcW-cw,Alma Cocina Downtown,"191 Peachtree St NE, Atlanta, GA 30303",Atlanta,30303,33.7590348,-84.386686,4,1125,4.4,1958,0.7927569548,"Nightlife, Bars, Brazilian, Latin American, Mexican, Restaurants","restaurant, food",1
TR55ooT3MZ6NN9eku0zTwQ,ChIJSwROpWAB9YgR7HLezQ5m9fQ,Spoon Eastside,"749 Moreland Ave SE, Atlanta, GA 30316",Atlanta,30316,33.7336853,-84.3498746,4,317,4.4,721,0.7627865716,"Restaurants, Thai","restaurant, food",1
YerCxfWF53UQ5ro2BdrT1g,ChIJF7VXrSsF9YgRiRUel76wnOc,Cafe at Pharr,"1465 Chattahoochee Ave NW, Atlanta, GA 30318",Atlanta,30318,33.8069683,-84.4342512,3.5,29,4.4,101,0.655854592,"Salad, Sandwiches, Cafes, Restaurants, Food","cafe, restaurant, food",1
U3vlqKn9wMEgIPgKXxkEdA,ChIJy1L4guwE9YgRxZqKxux2Clo,Upbeet,"1071 Howell Mill Rd NW suite a, Atlanta, GA 30318",Atlanta,30318,33.784169,-84.411592,4.5,609,4.5,1685,0.8417027203,"Coffee & Tea, Food, Juice Bars & Smoothies, Restaurants, Vegan, Salad, Acai Bowls","restaurant, food",1
V_Xp_zpkyKfDEeH2Ek417w,ChIJtZOwXaAG9YgRfS5VcylftaI,Dark Horse Tavern,"816 North Highland Avenue Northeast, Atlanta, GA 30306",Atlanta,30306,33.776797,-84.3526168,3,215,4.2,854,0.6385575176,"Karaoke, Bars, Restaurants, Pubs, Music Venues, Nightlife, Dance Clubs, American (New), Arts & Entertainment","bar, night_club, restaurant, food",1
cu122j6S7nP5lN1YOkzV0A,ChIJYXb--jMF9YgRb9hUAu9TFuY,Capital One Café,"3393 Peachtree Rd NE Space # 3078a 3078A, Atlanta, GA 30326",Atlanta,30326,33.8462925,-84.3621419,5,6,3.9,80,0.73091944,"Restaurants, Cafes, Financial Services, Banks & Credit Unions","cafe, bank, finance, food",1
qS2Gg7_FH8iHFiorOVd7hg,ChIJX973788F9YgR0EDNzkfhmRY,Pasta da Pulcinella,"1100 W Peachtree St NW, Atlanta, GA 30309",Atlanta,30309,33.7848642,-84.3880599,4,701,4.4,1200,0.7803466968,"Italian, Restaurants, Pasta Shops, Wine Bars, Specialty Food, Food, Nightlife, Bars","restaurant, food",1
FxvotvjV6TBPa1MkoFbqig,ChIJq6oa38AI9YgRYgD65pIH6hs,RED PEPPER TAQUERIA,"705 Town Blvd Q310, Brookhaven, GA 30319",Brookhaven,30319,33.8695543,-84.3360869,3.5,109,4.2,855,0.6781203632,"Bars, Tex-Mex, Event Planning & Services, Mexican, Restaurants, Nightlife, Sports Bars, Caterers","bar, restaurant, food",1
WwUkt_i82xhQASXP8Ympmw,ChIJU4wNmFsJ9YgRirvK9ICqlJE,Seasons 52,"90 Perimeter Center W, Dunwoody, GA 30346",Dunwoody,30346,33.926461,-84.339813,4,730,4.5,3322,0.8015684395,"American (New), Restaurants, American (Traditional), Wine Bars, Gluten-Free, Vegetarian, Nightlife, Seafood, Bars","bar, meal_takeaway, restaurant, food",1
n-amYd0yobieUocNUb_vig,ChIJZxOSwc8J9YgRORMOoQHdV5Q,"P N Rice Cake House 풍년떡,밑반찬 전문점","5273 Buford Hwy NE, Doraville, GA 30340, United States",Doraville,30340,33.8960811,-84.2809011,5,12,4.7,74,0.8197041286,"Asian Fusion, Desserts, Food, Restaurants","bakery, grocery_or_supermarket, food",1
7lghBEn9pRjL7HuoOo-OZA,ChIJGQR3aIwF9YgRac-vgytv4CY,Cafe Sunflower Buckhead,"2140 Peachtree Rd, Atlanta, GA 30309",Atlanta,30309,33.8126206,-84.3932094,4.5,618,4.6,1312,0.849326435,"Restaurants, Vegan, Vegetarian, Salad","restaurant, food",1
YoalCbNCafRZfx_9lUeo7Q,ChIJkUYmg-AJ9YgRgOaN4TUCbEI,Local Expedition Wood Fired Grill,"1110 Hammond Dr STE 15, Sandy Springs, GA 30328",Sandy Springs,30328,33.9193458,-84.3510208,5,154,4.9,1396,0.9085300881,"Wraps, Restaurants, Chicken Wings, American (New), Vegetarian, Barbeque","restaurant, food",1
sG4CNgTb7vu_29bcCpLRwQ,ChIJhX3ADVkH9YgREdG23L0wMU8,FolkArt,"174 W Ponce de Leon Ave, Decatur, GA 30030",Decatur,30030,33.7754481,-84.2980766,4,69,4.4,873,0.7413379653,"American (Traditional), Restaurants, Breakfast & Brunch, Southern, Food","restaurant, food",1
O74RpFtTDDyf3z7DFRmpRg,ChIJG7DGDpYI9YgR6iOzIICcy3c,Dixie Q,"2524 Caldwell Rd NE, Atlanta, GA 30319",Atlanta,30319,33.861282,-84.3322137,4,146,4.4,506,0.7471577096,"Restaurants, Sandwiches, Barbeque","restaurant, food",1
48UX4Sx-4Nc-uFhVKw7ZrA,ChIJiQyZ4qsG9YgRP_wcRJGZxaw,Wrecking Bar Brewpub,"292 Moreland Ave NE, Atlanta, GA 30307",Atlanta,30307,33.7621855,-84.3499782,4,712,4.7,1825,0.8149491799,"Brewpubs, Bars, Breweries, Nightlife, Food, American (New), Gastropubs, Restaurants, Pubs","bar, restaurant, food",1
EvpaNOrJPEa_tuLI0sQjbg,ChIJrdmMaAUF9YgR3-CL78c06i8,Rowdy Tiger Whiskey Bar & Kitchen,"866 W Peachtree St NW, Atlanta, GA 30308",Atlanta,30308,33.7781729,-84.3875239,4,65,3.9,304,0.6794669675,"Restaurants, Bars, Nightlife, Comfort Food, Whiskey Bars, Southern","restaurant, bar, food",1
U1TNktr9XCBjRlEXqKxUnQ,ChIJp-YA7RAE9YgRXNwHuuDd9ss,Hop's Chicken,"Ponce City Market, 675 Ponce De Leon Ave NE, Atlanta, GA 30308",Atlanta,30308,33.7728815,-84.3654663,3,475,3.3,547,0.556162053,"American (Traditional), American (New), Restaurants, Chicken Wings, Chicken Shop","meal_takeaway, restaurant, food",1
mAW0poOKFdoaBFXAE-xjJA,ChIJqYC4XIkF9YgR7m5ZHluAajA,Souper Jenny,"130 W Paces Ferry Rd NW, Atlanta, GA 30305",Atlanta,30305,33.8418361,-84.3856315,4,256,4.5,205,0.7564323091,"Restaurants, Event Planning & Services, Soup, Caterers, Delis, Sandwiches, Breakfast & Brunch","cafe, restaurant, food",1
GfSQJ3Ex7IjomEAav9Mwzw,ChIJZ1R4dLMH9YgRgxr601FSBjI,La Parrilla Mexican Restaurant,"2945 N Druid Hills Rd, Atlanta, GA 30329",Atlanta,30329,33.8147919,-84.310775,3.5,344,4.3,2663,0.7176400195,"Food, Restaurants, Buffets, Bars, Mexican, Nightlife, Sports Bars","bar, restaurant, food",1
GrU0OvMOiMMjS_l9cn_PRw,ChIJL3iCOj8H9YgRE_6K9sn-NTc,Dairy Queen Grill & Chill,"245 E Trinity Pl, Decatur, GA 30030, United States",Decatur,30030,33.7716406,-84.2933911,4.5,26,4.2,469,0.7501278148,"Fast Food, Restaurants, Food, Burgers, Ice Cream & Frozen Yogurt","restaurant, food",1
_8DT1aiE2O5IMbHeLprMdQ,ChIJA8jJgCAE9YgRVB7mnCHdjQM,Taco Mac Virginia Highlands,"1006 North Highland Avenue Northeast, Atlanta, GA 30306",Atlanta,30306,33.7820278,-84.3545339,3,209,3.8,833,0.5978623995,"Restaurants, Bars, Tex-Mex, Chicken Wings, Nightlife, Mexican, Sports Bars, American (Traditional)","restaurant, bar, food",1
K2g64la2lXZTp6udr2D-rg,ChIJUcdB5PIH9YgRVoNTFDCfsvk,Kafenio Avondale,"2700 E College Ave #3000, Decatur, GA 30030",Decatur,30030,33.7749668,-84.2788184,4.5,92,4.6,609,0.8119935132,"Restaurants, Greek","restaurant, food",1
NLRShcAx7lku9GiFBrfbcA,ChIJVVUlJJwO9YgRuyJ18k0OgFU,Gus's World Famous Fried Chicken,"6518 Roswell Rd, Sandy Springs, GA 30328",Sandy Springs,30328,33.9328926,-84.3804035,4,414,4.3,1420,0.7639579835,"Comfort Food, Restaurants, Southern, Chicken Shop","restaurant, food",1
22Y5HC5GY7KcHR_LeNH_HA,ChIJFyduYFgP9YgRsb-T_vD8Fao,Maggiano's Little Italy,"3368 Peachtree Rd, Atlanta, GA 30326",Atlanta,30326,33.8484115,-84.3673553,3.5,508,4.5,4864,0.7499318328,"Restaurants, Italian, Bars, Venues & Event Spaces, Nightlife, Event Planning & Services","bar, meal_takeaway, restaurant, food",1
CM_9R-uIfsR3s9PjkOCoDA,ChIJpwdZ0AcE9YgR4Y8mHDdrygo,Ladybird Grove & Mess Hall,"684 John Wesley Dobbs Ave NE Unit J, Atlanta, GA 30312",Atlanta,30312,33.7595612,-84.36423,3.5,650,4.4,2759,0.7378410789,"American (New), Bar Crawl, Barbeque, Nightlife, Restaurants","bar, restaurant, food",1
Z-IauLuBeVVYvwvZTbeCtQ,ChIJJTi5IXoD9YgRmHmIRrdh6OA,Match Bar& Oven,"199 Walker St SW, Atlanta, GA 30313",Atlanta,30313,33.7494808,-84.4018573,4,51,4.2,222,0.7025152025,"Restaurants, Hawaiian, Lounges, Mexican, Bars, Nightlife","bar, night_club, restaurant, food",1
ulpUdmesgOMhAH4IiexQGA,ChIJ4Ytbov0J9YgRkCiqjFWW69k,Northern China Eatery,"5141 Buford Hwy NE Suite C, Doraville, GA 30340",Doraville,30340,33.8926441,-84.2837722,4,289,4.4,1027,0.7650378026,"Dim Sum, Restaurants, Chinese","restaurant, food",1
qHNfi8exkBnwNovAD8zCTA,ChIJgU8XwBAE9YgRtXulXX3Oqys,Bellina Alimentari,"Ponce City Market, 675 Ponce De Leon Ave NE UNIT 131, Atlanta, GA 30308",Atlanta,30308,33.7729245,-84.3662211,4,287,4.2,684,0.7407044801,"Italian, Bars, Restaurants, Wine Bars, Nightlife","bar, restaurant, food",1
2fkTxtF59cYdktacQ6-axg,ChIJXaC0bT0H9YgRmC4E9BJVtto,Pastries A Go Go,"235 Ponce De Leon Pl, Decatur, GA 30030",Decatur,30030,33.7760473,-84.299816,4,175,4.5,391,0.757267734,"Sandwiches, Bakeries, Food, Restaurants, Breakfast & Brunch","bakery, restaurant, food",1
QKHR_5CtPSDBWnK42R9qWw,ChIJXW0GW1sB9YgRAg8Pv7ekF-g,Holy Taco,"1314 Glenwood Ave SE, Atlanta, GA 30316",Atlanta,30316,33.7403506,-84.3446513,3.5,492,4.1,1132,0.6942671012,"Restaurants, Mexican, Food","restaurant, food",1
7BwHFPT85SwevBVXnyUdEA,ChIJl0j6EWMP9YgRcXziFYKToZ4,City Bagel and Cafe,"334 Sandy Springs Cir, Sandy Springs, GA 30328",Sandy Springs,30328,33.9272041,-84.3811038,4.5,47,4.4,121,0.7649966323,"Food, Cafes, Bagels, Restaurants","bakery, food",1
LfMMRiSRrawjIJJMfvqwRQ,ChIJUw_q8O0D9YgRq5yFELdvDjw,Grant Park Market,"519 Memorial Dr SE Suite A-04, Atlanta, GA 30312, United States",Atlanta,30312,33.7465247,-84.3707889,4,78,4.5,415,0.7454822267,"Grocery, Cafes, Restaurants, Food","grocery_or_supermarket, cafe, food",1
yNRCLu9ESXu9M9R-nO_fEQ,ChIJ2XXuMvcF9YgR_OTIeCXvrmg,Ruby Chow's,"620 Glen Iris Dr NE Unit C-1, Atlanta, GA 30308",Atlanta,30308,33.7713608,-84.3678307,4.5,85,4.6,414,0.8067718488,"Sushi Bars, Asian Fusion, Restaurants","restaurant, food",1
cFN-AIr-GW2Gc-TrtJidFg,ChIJ3Z_V18oJ9YgRk6KulE-pRsc,Dish Korean Cuisine,"5000 Buford Hwy NE, Chamblee, GA 30341",Chamblee,30341,33.8874582,-84.2881119,4,273,4.5,758,0.7710007597,"Restaurants, Beer, Wine & Spirits, Korean, Food","restaurant, food",1
LzhCecJvRIwTLptntb-teg,ChIJZW3da4AD9YgROoWuyAbuESA,McCormick & Schmick's Seafood & Steaks,"190 Marietta St NW, Atlanta, GA 30303",Atlanta,30303,33.7579451,-84.3938802,3,388,3.8,1437,0.613079915,"American (Traditional), Seafood, Steakhouses, Restaurants","bar, restaurant, food",1
5hrvvAGs9i6UiSQBsrTmlg,ChIJDxPnO4sD9YgRP1RXHP4elIw,Harold's Chicken & Ice Bar,"349 Edgewood Ave SE, Atlanta, GA 30312",Atlanta,30312,33.7542665,-84.3761811,3,628,4.1,3564,0.6599731198,"Sports Bars, Sandwiches, Chicken Wings, Nightlife, Soul Food, Restaurants, Bars","bar, restaurant, food",1
z53_IRVOhWPUwB5YJ4p67w,ChIJVWfvp7Cp9YgRSjtg4Dz6Glo,Dijla Cafe & Lounge,"3711 N Decatur Rd #116, Decatur, GA 30032",Decatur,30032,33.7852778,-84.2427778,4,41,4.1,435,0.6961879155,"Halal, Nightlife, Hookah Bars, Middle Eastern, Mediterranean, Restaurants, Bars","night_club, bar, restaurant, food",1
gLCRXBEL5TbAUYwSr7D-Dw,ChIJN5wJWdoJ9YgRfPNXnHBejbM,Shaking Crawfish,"5412 Buford Hwy NE, Doraville, GA 30340",Doraville,30340,33.9000768,-84.2783322,3.5,376,4,1009,0.6789166429,"Seafood, Restaurants, Live/Raw Food, Cajun/Creole, Chicken Wings","restaurant, food",1
e0rUVB3QuktBGMwkkYOyHQ,ChIJ16wKKIkF9YgRBsLiXFBQMkg,The Blind Pig Parlour Bar,"128 E Andrews Dr NW, Atlanta, GA 30305",Atlanta,30305,33.8425356,-84.3830193,4,35,4.6,922,0.7516086135,"Barbeque, American (Traditional), Bars, Cocktail Bars, Nightlife, Lounges, Restaurants","night_club, bar, restaurant, food",1
oGshUJhbJsjsnaQZXJaDNA,ChIJ4VzVgmkG9YgRdJn9k0lOaaM,Waikikie Hawaiian BBQ,"2160 Briarcliff Rd NE, Atlanta, GA 30329",Atlanta,30329,33.816623,-84.3356076,4,571,4.6,1130,0.7965502575,"Restaurants, Barbeque, Hawaiian","restaurant, food",1
xQRUUMx286uBH8oouZJ0aw,ChIJb7R4rXQH9YgRt-lSDfTSEjo,Melton's App & Tap,"2500 N Decatur Rd, Decatur, GA 30033",Decatur,30033,33.794096,-84.2909525,4,212,4.5,886,0.7687234574,"American (Traditional), Restaurants, Burgers, Bars, Nightlife","bar, restaurant, food",1
7CM6odXJfwraY5VHn6aH2Q,ChIJx1z3ZNkJ9YgR-WeY3Z9-EFc,Las Delicias De La Abuela,"5600 Buford Hwy NE Suite #E, Doraville, GA 30340",Doraville,30340,33.9066164,-84.2730856,4,262,4.5,6001,0.7918935822,"Latin American, Breakfast & Brunch, Restaurants, Colombian","restaurant, food",1
ZMEZgMF9FkgR9yl_RJkWfQ,ChIJjU59JhwE9YgRKkgCBWC7Frg,Fellini's Pizza,"909 Ponce De Leon Ave NE, Atlanta, GA 30306",Atlanta,30306,33.7735462,-84.3576236,4,509,4.5,4690,0.7995830655,"Pizza, Restaurants","restaurant, food",1
ERVKNes7rXoQg4J0gWhMdg,ChIJVVXF-esE9YgR3WPFEFxWIOc,Forza Storico,"1198 Howell Mill Rd #020, Atlanta, GA 30318",Atlanta,30318,33.7866139,-84.4121224,4,125,4.8,1998,0.7990527419,"Cocktail Bars, Wine Bars, Bars, Pasta Shops, Nightlife, Italian, Restaurants, Specialty Food, Food","restaurant, food",1
hVL_gLKPoCTMlS5Pux_XWg,ChIJFZ4OdVsB9YgRSBdT8Ml1a8U,Argosy,"470 Flat Shoals Ave SE, Atlanta, GA 30316",Atlanta,30316,33.7413259,-84.3462356,4,629,4.5,2235,0.7951414763,"Restaurants, Food, Nightlife, Gastropubs, Burgers, Bars, American (New), Beer Bar, Pizza","bar, restaurant, food",1
SYaQ0LlP8SsR1_REjDTtRg,ChIJoXe78d4J9YgRLmWCI36QDNk,Waffle House,"5598 Buford Hwy NE, Doraville, GA 30340",Doraville,30340,33.9045033,-84.2729458,2.5,12,3.9,609,0.5115242302,"American (New), Breakfast & Brunch, Diners, Restaurants, American (Traditional)","meal_takeaway, restaurant, food",1
tJGAni_ckCFH1SDmyopG9g,ChIJg7Rc21AP9YgRcKZKaire4UE,Davio’s Northern Italian Steakhouse,"3500 Peachtree Rd NE, Atlanta, GA 30326",Atlanta,30326,33.8527496,-84.3630935,4,281,4.4,730,0.7610550921,"Steakhouses, Restaurants, Gluten-Free, Italian","restaurant, food",1
m-wYVBlP0S9OdAtc0AsgzQ,ChIJe8BxQRKn9YgR-uZmvmo9R08,Leon International Foods,"4000 Pleasantdale Rd, Doraville, GA 30340, United States",Doraville,30340,33.8986775,-84.2451346,4.5,20,4.7,174,0.7859511647,"Specialty Food, Mediterranean, Ethnic Food, Grocery, Bakeries, Restaurants, Health Markets, Food","grocery_or_supermarket, food",1
QM62Z2ib7XE9OmRKQGFyzg,ChIJrW7oyy8D9YgRAO7RzPbKNWs,Guac y Margys,"661 Auburn Ave NE #120, Atlanta, GA 30312",Atlanta,30312,33.7554194,-84.3655512,4,164,4.4,810,0.7538368448,"Nightlife, Tacos, Cocktail Bars, Breakfast & Brunch, Restaurants, Mexican, Argentine, Bars","restaurant, food",1
Aq0FUPDiSriqUyU62KEDmQ,ChIJAXyO6TME9YgRsyC69QK5W38,Smith's Olde Bar,"1578 Piedmont Ave NE, Atlanta, GA 30324",Atlanta,30324,33.7976384,-84.3688347,3.5,211,4.5,1772,0.7258607239,"Burgers, Barbeque, Pool Halls, Bars, Restaurants, Arts & Entertainment, Music Venues, American (New), Nightlife","bar, restaurant, food",1
uFEIXFczBOGQjb4CWSd6Yg,ChIJ8zHvJxXi9IgROvHiB58L1Og,The U Bar,"3515 Camp Creek Pkwy #50-70, East Point, GA 30344",East Point,30344,33.6548618,-84.5019034,2.5,357,3.8,4875,0.5745059012,"Bars, Nightlife, Sports Bars, Restaurants, Mexican, Sandwiches","bar, restaurant, food",1
NVYno0E8iJ9065TGePDn6g,ChIJJ72T1agG9YgR7f1FJRUZsEc,Brewhouse Cafe,"401 Moreland Ave NE, Atlanta, GA 30307",Atlanta,30307,33.7651882,-84.3488655,3.5,302,4.3,1002,0.705460551,"Sports Bars, Nightlife, Pubs, Bars, Restaurants, Breakfast & Brunch","bar, restaurant, food",1
kRx08q03nV745mDW8t7ulg,ChIJsadInawG9YgRjGEURhhGuBE,Ru San's,"1220 Caroline St NE A 200, Atlanta, GA 30307",Atlanta,30307,33.7587732,-84.3489912,3,403,4.2,1462,0.6538452369,"Asian Fusion, Sushi Bars, Restaurants, Seafood","restaurant, food",1
077MWijQIKqatl7Dwl_P6w,ChIJXY2qYrEP9YgRYINPWWEpNbI,Big B's Fish Joint,"4600 Roswell Rd d140, Sandy Springs, GA 30342",Sandy Springs,30342,33.8806065,-84.380836,4.5,125,4.4,485,0.7943302802,"Restaurants, Seafood","restaurant, food",1
EbkYZwqtnKmpYhQx0ihADQ,ChIJ_XtMOYcD9YgR4LyzWGoMvuU,Slice Downtown,"85 Poplar St NW, Atlanta, GA 30303",Atlanta,30303,33.7568463,-84.3900675,3.5,196,4.3,841,0.6969722269,"Nightlife, Lounges, Pizza, Bars, Restaurants","bar, restaurant, food",1
bFrdL0CL4P1djjSOeWzRRg,ChIJW31yfH8F9YgRdtbpWzsNBe0,Plant Based Pizzeria,"730 Barnett St NE, Atlanta, GA 30306",Atlanta,30306,33.7742942,-84.3589445,4.5,277,4.5,1323,0.8270177011,"Vegan, Restaurants, Burgers, Pizza","restaurant, food",1
nkBL-uZYUZkPZgwAj0vfsw,ChIJm_Z3CMEH9YgR143aw4PoLAg,Oak Grove Market,"2757 Lavista Rd, Decatur, GA 30033, United States",Decatur,30033,33.8239108,-84.2934357,4.5,65,4.7,148,0.8020092457,"Butcher, Fruits & Veggies, Food, Meat Shops, Grocery, Restaurants, Delis, Specialty Food, Diners","restaurant, grocery_or_supermarket, food",1
FNmJCkh_pJ3TRJ3m_AgPdQ,ChIJzbLep7Mb9YgR_HNq285uOyw,Public House 28,"2030 Bolton Rd NW, Atlanta, GA 30318",Atlanta,30318,33.8115336,-84.4753697,4,54,4.5,344,0.737926611,"American (New), Wine Bars, Nightlife, Restaurants, Pubs, Burgers, Bars, American (Traditional)","bar, restaurant, food",1
ZcqnDWMc3Sj_6bbq6WZNXw,ChIJ4XdYKVgP9YgRkAMVo09Zwbw,The Cheesecake Factory,"3393 Peachtree Rd NE Suite 3076A, Atlanta, GA 30326",Atlanta,30326,33.8473908,-84.3629243,3,494,4,6548,0.6525944246,"Desserts, Salad, Restaurants, Food, Seafood, American (New), American (Traditional)","restaurant, bakery, meal_takeaway, food",1
QVTfbEmNX-4WCB7wyv1h-Q,ChIJv8Ewms4J9YgRw7G7sTo02QI,BBQ Corner 2,"5150 Buford Hwy NE, Doraville, GA 30340",Doraville,30340,33.8926281,-84.2848638,4,172,4.5,484,0.7592177679,"Chinese, Barbeque, Food, Restaurants, Cantonese","meal_takeaway, restaurant, food",1
Ea5zVXvC4fHbCE6rCbEjrA,ChIJOaTemRME9YgRLPXRsLrgkSQ,Domino's Pizza,"461 Ponce De Leon Ave NE, Atlanta, GA 30308",Atlanta,30308,33.7730352,-84.371966,1.5,86,2.6,558,0.3100518545,"Restaurants, Sandwiches, Pizza, Chicken Wings, Italian","meal_delivery, meal_takeaway, restaurant, food",1
ZAmrzAAfpVusdnM51xl5Kw,ChIJAXji4wME9YgRMKwIGkOaJ54,Pure Taqueria,"300 North Highland Avenue Northeast, Atlanta, GA 30307",Atlanta,30307,33.762972,-84.3582392,3,402,4.3,951,0.6593336834,"Tex-Mex, Sandwiches, Restaurants, Mexican","restaurant, food",1
ot4np4xvoqUw2c-W_bqlFg,ChIJa2CPO-oH9YgR-TobcNUglUQ,Sprig Restaurant,"2860 Lavista Rd, Decatur, GA 30033",Decatur,30033,33.8257683,-84.2894721,4,320,4.5,803,0.7740518731,"Restaurants, Beer, Wine & Spirits, American (Traditional), American (New), Food, Southern, Nightlife, Bars, Gluten-Free","bar, restaurant, food",1
HWOFSqZ6-pNHgln3kroSMA,ChIJyS9B8HcG9YgRVEZmDumcd30,International Bakery,"2165 Cheshire Bridge Rd NE UNIT 5, Atlanta, GA 30324",Atlanta,30324,33.8133521,-84.3534903,4,105,4.5,442,0.7506893732,"Food, Restaurants, Bakeries","bakery, food",1
8mS4HnlUYsOB5wDPhnEpPg,ChIJr3GdkeAE9YgR0ik7ZKme-kc,Waffle House,"1700 Howell Mill Rd, Atlanta, GA 30318",Atlanta,30318,33.8007345,-84.4162361,3,46,3.8,1171,0.5782238082,"Southern, Breakfast & Brunch, American (Traditional), Diners, Restaurants, Waffles, American (New)","meal_takeaway, restaurant, food",1
JtDn_pzO-7GcFc7MvwrC4A,ChIJU20uvYAJ9YgRetSTfmSGlGM,Bb's Wings,"4400 Chamblee Dunwoody Rd # D, Atlanta, GA 30341",Atlanta,30341,33.9192052,-84.3158737,3,21,3.4,159,0.5057386251,"Chicken Wings, Restaurants","restaurant, food",1
ytZCIcxLDP6MSzWbDhzWzA,ChIJ_z3RITwG9YgR29JcnNg_IAU,Tropical Smoothie Cafe,"2566 Briarcliff Rd NE Suite 106, Atlanta, GA 30329",Atlanta,30329,33.82848,-84.329032,4.5,121,4.3,280,0.7781272842,"Restaurants, Sandwiches, Cafes, American (New), Food, Juice Bars & Smoothies, Breakfast & Brunch","cafe, restaurant, food",1
tWG4oTk1qgRhRPmkpenA1A,ChIJ05YhFqkG9YgRVCIPgWRCFi8,Aisle 5,"1123 Euclid Ave NE, Atlanta, GA 30307, United States",Atlanta,30307,33.7643475,-84.3504164,4,31,4.6,552,0.744451731,"Sandwiches, Bars, Restaurants, Arts & Entertainment, Music Venues, Nightlife",,1
Fi_zqia2O6RqGy0A7xDXgg,ChIJq2uEFHkE9YgRKQm1oho0buE,W XYZ Bar,"300 Ted Turner Dr NW, Atlanta, GA 30308",Atlanta,30308,33.7625722,-84.389382,3.5,14,4.1,32,0.6033732442,"Food, Beer, Wine & Spirits, Event Planning & Services, Nightlife, Restaurants, Cocktail Bars, Tapas/Small Plates, Venues & Event Spaces, Bars",bar,1
xakTfx650TBYn3IALjPZDg,ChIJs52AaeAF9YgRMbQKkOyhbQs,Mukja Korean Fried Chicken,"933 Peachtree St NE Suite 951, Atlanta, GA 30309",Atlanta,30309,33.7806459,-84.3837876,4.5,57,4.5,643,0.7952467802,"Southern, Chicken Shop, Restaurants, Korean","restaurant, food",1
ynV89yHdqzSdWMGnFcaFJA,ChIJlSwgNVyn9YgRp_z1unzLNl0,Yet Tuh,"3042 Oakcliff Rd, Doraville, GA 30340",Doraville,30340,33.9119247,-84.2618874,4,178,4.4,457,0.7491494103,"Korean, American (New), Restaurants","restaurant, food",1
UUm01v-ed313M9dVSD4faQ,ChIJ3R4TOFAE9YgRzI_1mGZQD6c,Panera Bread,"1080 Peachtree St NE Suite 14, Atlanta, GA 30309",Atlanta,30309,33.7839994,-84.3835429,2,92,3.4,662,0.4428608747,"Restaurants, Salad, Soup, Sandwiches","cafe, meal_takeaway, restaurant, bakery, food",1
Cd9xp84ReJiGMJ65ISgrgA,ChIJ_VBvnakG9YgRd94lIqQ6ClM,El Bandido Mex Mex Grill,"1083 Euclid Ave NE, Atlanta, GA 30307",Atlanta,30307,33.7633323,-84.351562,4,288,3.9,1027,0.7149843133,"Mexican, Nightlife, Tex-Mex, Steakhouses, Bars, Restaurants, Burgers","bar, restaurant, food",1
OFEnwG1VDgfa_bgOKPOn3A,ChIJdZGNZdsJ9YgRSNFsw5Pgh0g,Shoya Izakaya,"6035 Peachtree Rd A101, Doraville, GA 30340",Doraville,30340,33.9078783,-84.2866435,4,893,4.4,2238,0.7905750063,"Japanese, Restaurants, Sushi Bars","restaurant, food",1
2OiB-2nwHjQj1okic52Ung,ChIJrY9i3h0P9YgRYqq5BOMVxmw,Cibo e Beve,"4969 Roswell Rd, Sandy Springs, GA 30342",Sandy Springs,30342,33.8899157,-84.3809587,4,292,4.3,266,0.7411625504,"Restaurants, Pizza, Italian, Wine Bars, Bars, Nightlife, Seafood","restaurant, food",1
xvSa0CDP27pthoGeK4oGQQ,ChIJLwAzPwoE9YgR6sHCuP90Y0g,Condesa Coffee,"480 John Wesley Dobbs Ave NE UNIT 100, Atlanta, GA 30312",Atlanta,30312,33.759737,-84.3719068,4,293,4.4,611,0.7598506488,"Coffee & Tea, Wine Bars, Breakfast & Brunch, Nightlife, Restaurants, Food, Sandwiches, Bars","cafe, restaurant, food",1
1_JJaNLnedujQIAu6i10jQ,ChIJu5btDgUE9YgRUJoO9Pf_IX8,Bantam Pub,"737 Ralph McGill Blvd NE, Atlanta, GA 30312",Atlanta,30312,33.7662753,-84.3629123,4,329,4.5,859,0.7751810316,"Restaurants, Pubs, Breakfast & Brunch, Nightlife, American (New), Bars",bar,1
M3irvzqmsfLf8ILgk0ZDFQ,ChIJqfcDMOgF9YgR9Yk9hJ40osM,CEG Bakery,"2591 Piedmont Rd NE #1115, Atlanta, GA 30324",Atlanta,30324,33.8256479,-84.3666499,4.5,32,4.5,93,0.7664801718,"Cupcakes, Restaurants, Food, Desserts, Bakeries, Cafes","bakery, restaurant, cafe, food",1
xPNE432uqWzrN2LNEpW5MA,ChIJ55RQXaAG9YgRMcp5CxsHkjI,Ocean Wave By Harry and Sons,"820 North Highland Avenue Northeast, Atlanta, GA 30306",Atlanta,30306,33.7769274,-84.3526191,4,428,4.4,633,0.766069783,"Thai, Restaurants, Sushi Bars, Asian Fusion","bar, restaurant, food",1
ixer_k1KbAQATNtv3HFMiQ,ChIJH4-vET4G9YgRT5tMHoSnHyQ,EATaliano Kitchen,"2480 Briarcliff Rd NE Suite 21, Atlanta, GA 30329",Atlanta,30329,33.8282694,-84.3329646,4,290,4.3,886,0.753555294,"Nightlife, Restaurants, Bars, Pizza, Food Delivery Services, Italian, Food","meal_takeaway, meal_delivery, bar, restaurant, food",1
vwwOiFrFXlDzZDMmV_z0Bg,ChIJUTo37D0G9YgRtiDKKXyESvE,Einstein Bros. Bagels,"2870 N Druid Hills Rd, Atlanta, GA 30329",Atlanta,30329,33.8176073,-84.3114035,2.5,105,4,562,0.5531848723,"Bagels, Sandwiches, Food, Restaurants","cafe, restaurant, bakery, food",1
ihR6AFW0XxutTHIALOHNLQ,ChIJ70y8wM8J9YgRybg95MkOKQQ,Sokongdong Tofu House,"5280 Buford Hwy NE, Atlanta, GA 30340",Atlanta,30340,33.896918,-84.2824242,4,824,4.4,1210,0.7829330909,"Korean, Asian Fusion, Restaurants, Barbeque","restaurant, food",1
of-NOfJvcaJf3mA3zH_ayQ,ChIJtctXZQEE9YgR9Y8_tUlnMVw,The Albert,"918 Austin Ave NE, Atlanta, GA 30307",Atlanta,30307,33.7619456,-84.3575139,4,296,4.6,798,0.7827835967,"Bars, American (Traditional), Restaurants, Breakfast & Brunch, Nightlife","bar, restaurant, food",1
UfSkb9kO-gx9XXhMH29unw,ChIJ4a1ivGAB9YgR_gjv6e0E1pU,Morelli’s Gourmet Ice Cream,"749 Moreland Ave SE # B102, Atlanta, GA 30316, United States",Atlanta,30316,33.7340224,-84.3495931,4.5,396,4.6,1094,0.8405582955,"Bakeries, Restaurants, Food, Ice Cream & Frozen Yogurt, Desserts",food,1
GCYU8MAHAGZdklusLoqajg,ChIJo30Ht9sJ9YgRCZtsyBh-6B8,Han Il Kwan (한일관),"5458 Buford Hwy NE, Doraville, GA 30340",Doraville,30340,33.9013938,-84.2767579,3.5,240,4.2,943,0.6912843208,"Restaurants, Korean","restaurant, food",1
blhndZdg-NT5MPba5BsS_g,ChIJ0YC00eMD9YgRfA-rSizNINA,Drip,"928 Garrett St B, Atlanta, GA 30316",Atlanta,30316,33.7406714,-84.3572397,4,107,4.6,452,0.7612112098,"Coffee & Tea, Breakfast & Brunch, Food, Restaurants","cafe, food",1
WxLx34LGSR8B5uYScPD-jA,ChIJfWfIfpQJ9YgRIVKMVkk4bbA,Hong Kong Bakery,"3601 Shallowford Rd, Doraville, GA 30340",Doraville,30340,33.8936975,-84.2853217,4,62,4.7,53,0.7407226148,"Food, Chinese, Bakeries, Restaurants","bakery, food",1
QfeZMP4i955rsThVYLb_Mw,ChIJ74G6ZekO9YgRWEaV8krfDu0,Under The Cork Tree,"5600 Roswell Rd NE #230, Sandy Springs, GA 30342",Sandy Springs,30342,33.9081197,-84.3804067,4,253,4.5,821,0.7706572024,"American (New), Restaurants, Moroccan, Food, Wine Bars, Bars, Nightlife, Beer, Wine & Spirits, Tapas/Small Plates","bar, restaurant, food",1
Jfar-5GBeX3rrmfMg0kAsQ,ChIJfZfYUEAP9YgRKHzoDQTHN2k,La Petite Maison,"6510 Roswell Rd NE, Atlanta, GA 30328",Atlanta,30328,33.9324944,-84.380364,4,141,4.6,109,0.7507142782,"French, Food, Desserts, Restaurants","restaurant, food",1
yUQBtNuGsHoNIOXVyAw6wg,ChIJxTAzQYwD9YgRxZ-YCOT8fJk,The Beverly,"790 Glenwood Ave SE Ste 260, Atlanta, GA 30316",Atlanta,30316,33.7405925,-84.360906,3.5,62,4.4,1148,0.6925544138,"Sports Bars, Restaurants, Caribbean, American (New), Comfort Food, Beer Bar, Nightlife, Bars","restaurant, bar, food",1
gMSCtM6SCUF-bp3Ypw8Jxg,ChIJ6xl-kVgP9YgR063dIyw9krE,South City Kitchen Buckhead,"3350 Peachtree Rd NE Suite 175, Atlanta, GA 30326",Atlanta,30326,33.8476883,-84.3681992,4.5,747,4.5,2289,0.8480484378,"Restaurants, Breakfast & Brunch, Southern","restaurant, food",1
i5g-GL7Ppw4KlYwX6uruDA,ChIJOWy7Xn4F9YgRCoESsCz6LSA,MISO KO,"675 Ponce De Leon Ave NE, Atlanta, GA 30308",Atlanta,30308,33.7730435,-84.3656277,3.5,27,3.3,51,0.5377723739,"Restaurants, Sushi Bars","restaurant, food",1
0SVSf29HDVqTxGnA6VkahA,ChIJ8bIRYDkG9YgR7BY43mZj93Y,Chat Patti Indian Vegetarian Restaurant,"1707 Church St ste c-7, Decatur, GA 30033",Decatur,30033,33.7970298,-84.2808284,4,153,4.4,2530,0.7646166887,"Indian, Restaurants, Pakistani, Vegetarian","restaurant, food",1
GJxFtnTqTiokFedNrW9iDQ,ChIJY4335H0E9YgRpVDEfTRik70,Atlanta Breakfast Club,"249 Ivan Allen Jr Blvd NW, Atlanta, GA 30313",Atlanta,30313,33.7648611,-84.3953942,4.5,3761,4.5,7948,0.8860173928,"Restaurants, Breakfast & Brunch, American (Traditional), Southern, Coffee & Tea, American (New), Food","restaurant, food",1
jqJ49WeQVYmkJkOj4VDF6Q,ChIJw23jdm8E9YgRn1HODnsUFxE,Publik Draft House,"654 Peachtree St NE, Atlanta, GA 30308",Atlanta,30308,33.7723774,-84.3850469,3.5,436,4.3,1370,0.7143849532,"American (New), Restaurants, Food, Pubs, Bars, Beer, Wine & Spirits, Nightlife","bar, restaurant, food",1
BRb6D4-g_pQfT_YoyYTrEA,ChIJNY-_6EQQ9YgR7gxgSPldYUg,The Cheesecake Factory,"1609 Cumberland Mall, Atlanta, GA 30339, United States",Atlanta,30339,33.8808367,-84.4681064,3,497,3.9,6678,0.6428926183,"Desserts, Salad, Food, American (Traditional), Restaurants, Seafood, American (New)","restaurant, bakery, meal_takeaway, food",1
l8B1io0_hnPFDbKlBZYbsQ,ChIJH8JAfyAE9YgRrOdiFhHflak,Press and Grind,"992 North Highland Avenue Northeast, Atlanta, GA 30306",Atlanta,30306,33.7817287,-84.3542497,4,124,4.4,267,0.738010338,"Breakfast & Brunch, Food, Bakeries, Coffee & Tea, Restaurants, Gluten-Free","bakery, cafe, restaurant, food",1
kxQmMH3Ppfyl8YF0g6hNfA,ChIJJ_RDjIUH9YgRrLr1WOBpyGs,Southern Belle,"1043 Ponce De Leon Ave NE, Atlanta, GA 30306",Atlanta,30306,33.7733774,-84.3532581,4.5,68,4.6,193,0.7954450402,"American (Traditional), Cocktail Bars, Bars, Nightlife, Southern, Tapas/Small Plates, Food, American (New), Desserts, Restaurants","restaurant, food",1
cULa7kNW5glmMZdh5Y81Vg,ChIJ_2_udngE9YgR7QnTjCTSXNU,AG,"The Ritz-Carlton, Atlanta, 181 Peachtree St NE, Atlanta, GA 30303",Atlanta,30303,33.758588,-84.38713,3.5,186,4.4,557,0.70188243,"Sushi Bars, Steakhouses, American (New), Southern, Restaurants","restaurant, food",1
IqqZA0EtWumChf6B0ccQCg,ChIJr-EXrc8J9YgRW-Ky2rjbNFw,Dim Sum Heaven,"5203 Buford Hwy NE, Doraville, GA 30340",Doraville,30340,33.8942066,-84.28257,3.5,116,4.3,672,0.6865717093,"Chinese, Restaurants","meal_takeaway, restaurant, food",1
_YEfaPwhgnqhggcq46GjMA,ChIJda3uqMEH9YgRReowjXV79z0,The Grove Restaurant & Tavern,"2761 Lavista Rd, Decatur, GA 30033",Decatur,30033,33.824304,-84.2933922,3.5,140,4.6,1106,0.7246419401,"Nightlife, Sports Bars, Bars, American (New), Soup, Southern, American (Traditional), Restaurants","bar, restaurant, food",1
Pl2c7HLD9UgFL2zHP0cZVQ,ChIJ_4h_O0ME9YgRbRLJV26h9rI,Tabla,"77 12th St NE #2, Atlanta, GA 30309",Atlanta,30309,33.7843782,-84.3851668,4,525,4.2,1997,0.7611760569,"Indian, Restaurants","bar, restaurant, food",1
zARyfr-X5NfwLfwuCa9Whw,ChIJ_____4YD9YgRBc3dGH7GOKw,White Oak Kitchen & Cocktails,"270 Peachtree St NW #100, Atlanta, GA 30303",Atlanta,30303,33.7620443,-84.3877951,3.5,623,4.2,1334,0.709624002,"Southern, Beer, Wine & Spirits, Event Planning & Services, Nightlife, Comfort Food, Bars, Venues & Event Spaces, Restaurants, Food, Cocktail Bars, American (New), Coffee & Tea","restaurant, food",1
qXo9FcZkjZiFRnaP8sRh4g,ChIJ4WoeC_QD9YgR4084unsH0Vc,Manny's Grant Park,"580 Woodward Ave SE UNIT C, Atlanta, GA 30312",Atlanta,30312,33.7456376,-84.3684567,4,22,4.6,313,0.7334459234,"Burgers, Hot Dogs, Bars, Pubs, Nightlife, Restaurants",bar,1
ybXQIGonCQ1QkJ-vPGWm6w,ChIJK6RPxwME9YgRrapE4pbJ1uI,Victory Sandwich Bar,"913 Bernina Ave NE, Atlanta, GA 30307",Atlanta,30307,33.7639582,-84.3577426,4,183,4.5,1476,0.7717656678,"Bars, Sandwiches, Nightlife, Restaurants","bar, restaurant, food",1
gEtCP_o9ULFhZxwCs_d-bA,ChIJLdaQhZYI9YgRoXHMY9ebzZc,J. Christopher's,"1438 Dresden Dr NE, Atlanta, GA 30319",Atlanta,30319,33.8610738,-84.3299557,3.5,120,4.2,464,0.6732434225,"American (Traditional), Breakfast & Brunch, Restaurants, Food","restaurant, food",1
s7x0bsgAf8EMxtnZHQMxaw,ChIJJQEcinkD9YgRcnQIJ1cI7fI,No Mas! Hacienda,"180 Walker St SW Ste A, Atlanta, GA 30313, United States",Atlanta,30313,33.7498076,-84.4009838,4.5,18,4.4,47,0.7409344966,"Arts & Entertainment, Furniture Stores, Shopping, Jewelry, Home & Garden, Breakfast & Brunch, Lighting Fixtures & Equipment, Lighting Stores, Mexican, Restaurants, Nightlife, Gift Shops, Music Venues, Home Services, Flowers & Gifts, Home Decor","furniture_store, jewelry_store, home_goods_store",1
trfQCzNmAgfQLSFUb_6vbA,ChIJTWZNURMP9YgRKC9q5kJ6GYs,Buttermilk Kitchen,"4225 Roswell Rd NE, Atlanta, GA 30342",Atlanta,30342,33.8698676,-84.3807561,4.5,1698,4.6,2847,0.8730224693,"American (New), Breakfast & Brunch, Southern, American (Traditional), Restaurants","restaurant, food",1
r7JOeuv_9wlaqkrHEDQddw,ChIJ6ygScV8J9YgRcvwslDbHwOk,Another Broken Egg Cafe,"4745 Ashford Dunwoody Rd, Dunwoody, GA 30338",Dunwoody,30338,33.9331106,-84.3363197,3.5,421,4.4,2324,0.7293427045,"American (Traditional), Breakfast & Brunch, Salad, Sandwiches, Cafes, Restaurants","cafe, restaurant, food",1
VrjaMBZoIYt_Obk2dIs_iQ,ChIJp8-IuX8E9YgR6synMZ1w-O8,Ruth's Chris Steak House,"Embassy Suites Hotel, 267 Marietta St NW, Atlanta, GA 30313",Atlanta,30313,33.760717,-84.3942665,3,379,4.1,2502,0.6484873195,"Restaurants, Steakhouses, Thai, American (Traditional), Event Planning & Services, Seafood, Venues & Event Spaces","restaurant, food",1
PrjPmtcMdWC3vANyv6mhBg,ChIJXax3UTkG9YgRMkna_Wfh4G4,Tin Roof Cantina,"2591 Briarcliff Rd NE, Atlanta, GA 30329",Atlanta,30329,33.8281195,-84.3275686,3,193,4.2,781,0.6359650001,"Restaurants, Mexican, Nightlife, Bars, American (Traditional)","bar, restaurant, food",1
KD3vnYvuHpfC_sYeWkgUTA,ChIJOyF-S9QA9YgR5-sqaFKYKL8,Poor Hendrix,"2371 Hosea L Williams Dr SE bldg 2, Atlanta, GA 30317",Atlanta,30317,33.7509518,-84.309416,4.5,178,4.8,637,0.8426001689,"American (New), Restaurants, Bars, Tapas/Small Plates, Nightlife","bar, restaurant, food",1
95G2Y2-of1jFYNndCSWtkw,ChIJeWU4qsYH9YgRQ8zDvaucoBE,Petite Violette,"2948 Clairmont Rd, Atlanta, GA 30329",Atlanta,30329,33.8435121,-84.3153039,3.5,199,4.6,337,0.717704246,"Restaurants, French, Salad","restaurant, food",1
UcqHx8WJW894JyGiMyxspg,ChIJNwFLfVsE9YgRrkOBaigMzhI,McCray's Tavern Midtown,"1163 W Peachtree St NE, Atlanta, GA 30309",Atlanta,30309,33.7858113,-84.3875758,4,141,4.3,1448,0.7475540905,"Pubs, Sports Bars, Venues & Event Spaces, Event Planning & Services, Nightlife, Bars, American (Traditional), Restaurants","bar, restaurant, food",1
uRZk64TYGR3aeN3_zptL8w,ChIJW3DtK4wF9YgRjVf33yLsD-g,The White House Restaurant,"3172 Peachtree Rd NE, Atlanta, GA 30305",Atlanta,30305,33.8409024,-84.3764975,3.5,156,4.5,506,0.7081768347,"Restaurants, Breakfast & Brunch","restaurant, food",1
7o5akdL1TMdKE475EdR0eQ,ChIJNwwtzrsI9YgRXgwD6wK60hA,Mellow Mushroom Atlanta - Brookhaven,"4058 Peachtree Rd NE, Atlanta, GA 30319",Atlanta,30319,33.8613243,-84.3400726,3.5,175,4.3,1117,0.6981782988,"Nightlife, Bars, Pizza, Restaurants, Sandwiches","restaurant, food",1
